GPS TOW (s),GPS Week,Latitude (deg),Longitude (deg),Ellipsoid Height (m),ECEF X (m),ECEF Y (m),ECEF Z (m),Roll (deg),Pitch (deg),Heading (deg),East Velocity (m/s),North Velocity (m/s),Up Velocity (m/s)
349740,2267,35.68341276,139.76526356,41.818,-3959475.227,3350132.869,3699740.607,-1.342,0.262,194.665,0.001,0.003,-0.001
349741,2267,35.68341275,139.76526356,41.817,-3959475.226,3350132.868,3699740.606,-1.341,0.28,194.667,-0.006,-0.015,-0.016
349742,2267,35.68340961,139.76526256,41.81,-3959475.319,3350133.065,3699740.319,-1.334,0.59,194.664,-0.238,-0.932,0
349743,2267,35.68339398,139.76525755,41.803,-3959475.794,3350134.061,3699738.906,-1.394,0.679,194.877,-0.671,-2.491,-0.017
349744,2267,35.68336498,139.76524801,41.801,-3959476.668,3350135.932,3699736.291,-1.417,0.755,195.318,-1.033,-3.828,0.001
349745,2267,35.68332599,139.76523482,41.81,-3959477.828,3350138.478,3699732.783,-1.327,0.722,195.674,-1.34,-4.841,0.02
349746,2267,35.68327931,139.76521879,41.806,-3959479.195,3350141.535,3699728.574,-1.293,0.695,195.613,-1.557,-5.581,-0.003
349747,2267,35.683225,139.76520041,41.809,-3959480.805,3350145.077,3699723.681,-1.117,0.333,194.917,-1.718,-6.501,-0.001
349748,2267,35.68316289,139.7651814,41.786,-3959482.748,3350148.975,3699718.07,-1.906,0.201,193.377,-1.738,-7.26,-0.042
349749,2267,35.68309488,139.76516289,41.756,-3959485.007,3350153.082,3699711.923,-1.214,0.528,191.189,-1.535,-7.803,-0.022
349750,2267,35.68302468,139.7651471,41.802,-3959487.581,3350157.131,3699705.623,-1.568,0.772,189.849,-1.321,-7.732,0.017
349751,2267,35.68295569,139.76513306,41.835,-3959490.189,3350161.003,3699699.425,-1.401,0.666,189.043,-1.251,-7.575,0.037
349752,2267,35.68288825,139.76511968,41.854,-3959492.751,3350164.757,3699693.358,-0.947,0.86,189.869,-1.28,-7.402,0.032
349753,2267,35.6828197,139.76510271,41.85,-3959495.143,3350168.793,3699687.178,-0.484,0.169,192.833,-1.756,-7.801,-0.111
349754,2267,35.68274642,139.76508121,41.765,-3959497.453,3350173.298,3699680.524,-1.013,0.269,194.309,-2.072,-8.359,-0.154
349755,2267,35.68266817,139.76505637,41.729,-3959499.845,3350178.267,3699673.451,-1.317,0.256,194.837,-2.343,-9.005,0.053
349756,2267,35.68258523,139.76502935,41.708,-3959502.35,3350183.59,3699665.964,-1.417,0.312,194.893,-2.482,-9.434,-0.045
349757,2267,35.68249973,139.76500172,41.685,-3959504.944,3350189.061,3699658.245,-1.346,0.32,194.634,-2.475,-9.47,0.018
349758,2267,35.68241712,139.76497547,41.656,-3959507.473,3350194.314,3699650.783,-1.326,0.33,194.614,-2.318,-8.858,-0.049
349759,2267,35.68234027,139.76495092,41.635,-3959509.821,3350199.212,3699643.844,-1.248,0.184,194.696,-2.147,-8.161,-0.102
349760,2267,35.68226831,139.76492787,41.608,-3959512.012,3350203.799,3699637.343,-1.418,0.248,194.788,-2.019,-7.788,0.016
349761,2267,35.68220026,139.76490573,41.591,-3959514.069,3350208.165,3699631.201,-0.98,0.425,194.992,-1.988,-7.455,-0.012
349762,2267,35.68213293,139.76488382,41.563,-3959516.097,3350212.479,3699625.116,-1.515,0.316,195.33,-2.059,-7.433,-0.051
349763,2267,35.68206638,139.76486085,41.543,-3959518.029,3350216.837,3699619.107,-1.602,0.385,196.577,-2.158,-7.344,0.001
349764,2267,35.68200076,139.76483655,41.522,-3959519.837,3350221.249,3699613.181,-1.566,0.551,197.309,-2.247,-7.316,-0.038
349765,2267,35.68193397,139.76481082,41.526,-3959521.635,3350225.821,3699607.164,-1.215,0.407,197.64,-2.321,-7.412,-0.022
349766,2267,35.6818652,139.76478356,41.537,-3959523.445,3350230.585,3699600.972,-1.297,0.72,198.561,-2.662,-7.953,0.005
349767,2267,35.68179177,139.76475301,41.538,-3959525.288,3350235.767,3699594.355,-1.075,0.686,199.093,-2.849,-8.288,0.003
349768,2267,35.68171602,139.76472093,41.55,-3959527.162,3350241.157,3699587.535,-1.298,0.707,199.335,-2.987,-8.547,-0.033
349769,2267,35.68163734,139.76468711,41.559,-3959529.077,3350246.788,3699580.449,-1.369,0.606,199.558,-3.161,-8.88,-0.017
349770,2267,35.68155576,139.76465159,41.547,-3959531.023,3350252.646,3699573.09,-0.949,0.542,199.351,-3.266,-9.231,0.015
349771,2267,35.68147072,139.76461599,41.535,-3959533.135,3350258.655,3699565.419,-0.646,0.417,198.004,-3.145,-9.667,-0.021
349772,2267,35.68138137,139.76458227,41.521,-3959535.569,3350264.713,3699557.358,-0.892,0.151,196.184,-2.932,-10.125,-0.012
349773,2267,35.68128816,139.7645505,41.483,-3959538.293,3350270.785,3699548.935,-1.228,0.359,195.16,-2.829,-10.525,-0.035
349774,2267,35.68119188,139.764519,41.466,-3959541.197,3350276.978,3699540.248,-1.379,0.502,194.767,-2.864,-10.851,0.006
349775,2267,35.68109343,139.76448689,41.438,-3959544.166,3350283.297,3699531.359,-1.129,0.479,194.994,-2.935,-10.986,0.006
349776,2267,35.68099536,139.7644546,41.426,-3959547.116,3350289.622,3699522.513,-1.126,0.409,194.999,-2.868,-10.719,-0.008
349777,2267,35.6809008,139.76442376,41.411,-3959549.975,3350295.698,3699513.982,-1.375,0.265,194.821,-2.705,-10.272,-0.013
349778,2267,35.68081008,139.7643945,41.399,-3959552.738,3350301.506,3699505.799,-1.481,0.518,194.662,-2.607,-9.957,-0.019
349779,2267,35.68072052,139.76436613,41.398,-3959555.503,3350307.21,3699497.727,-1.35,0.46,194.074,-2.449,-9.928,0.027
349780,2267,35.68063149,139.76433941,41.392,-3959558.335,3350312.775,3699489.699,-1.076,0.549,193.348,-2.348,-9.828,0.019
349781,2267,35.68054411,139.76431373,41.413,-3959561.164,3350318.214,3699481.837,-0.889,0.529,193.989,-2.404,-9.545,0.011
349782,2267,35.68045857,139.76428613,41.429,-3959563.786,3350323.705,3699474.136,-0.564,0.317,195.287,-2.567,-9.49,-0.031
349783,2267,35.6803729,139.76425726,41.363,-3959566.289,3350329.247,3699466.377,-2.25,0.026,196.076,-2.619,-9.427,-0.105
349784,2267,35.6802866,139.76422516,41.347,-3959568.666,3350335.064,3699458.59,-2.267,0.561,197.599,-3.097,-9.765,0.035
349785,2267,35.68019675,139.76419069,41.38,-3959571.109,3350341.22,3699450.511,-1.663,0.211,196.708,-3.001,-10.103,-0.043
349786,2267,35.6801046,139.76415721,41.372,-3959573.699,3350347.381,3699442.201,-1.342,0.704,196.155,-3.025,-10.347,0.034
349787,2267,35.68001024,139.76412421,41.39,-3959576.442,3350353.616,3699433.707,-1.261,0.722,195.626,-2.989,-10.652,0.049
349788,2267,35.67991416,139.7640913,41.348,-3959579.238,3350359.884,3699425.024,-1.093,0.179,195.185,-2.946,-10.655,-0.12
349789,2267,35.67981738,139.76405969,41.308,-3959582.146,3350366.093,3699416.278,-1.345,0.06,194.614,-2.823,-10.724,-0.068
349790,2267,35.67972058,139.76402926,41.26,-3959585.119,3350372.217,3699407.526,-1.168,0.238,194.128,-2.732,-10.774,0.003
349791,2267,35.67962368,139.76399933,41.232,-3959588.139,3350378.322,3699398.776,-1.665,0.373,194.309,-2.732,-10.77,-0.013
349792,2267,35.67952661,139.76396868,41.21,-3959591.128,3350384.486,3699390.015,-2.01,0.592,194.719,-2.829,-10.812,0.031
349793,2267,35.67942925,139.76393675,41.216,-3959594.075,3350390.765,3699381.243,-1.211,0.495,194.976,-2.906,-10.775,-0.049
349794,2267,35.67933311,139.7639049,41.249,-3959596.982,3350397.002,3699372.598,-0.977,0.255,195.113,-2.826,-10.484,0.044
349795,2267,35.67924036,139.7638744,41.207,-3959599.755,3350402.965,3699364.214,-2.116,0.335,195.202,-2.732,-10.227,0.01
349796,2267,35.67914921,139.76384413,41.201,-3959602.484,3350408.864,3699355.995,-2.454,0.339,195.111,-2.666,-10.021,-0.046
349797,2267,35.67905979,139.76381531,41.175,-3959605.2,3350414.58,3699347.921,-2.544,0.349,194.062,-2.491,-9.846,-0.03
349798,2267,35.67897175,139.76378939,41.157,-3959608.022,3350420.042,3699339.976,-2.068,0.12,192.611,-2.19,-9.716,-0.001
349799,2267,35.67888546,139.76376678,41.11,-3959610.934,3350425.187,3699332.171,-2.071,0.438,191.429,-1.93,-9.4,-0.011
349800,2267,35.67880233,139.76374616,41.095,-3959613.826,3350430.079,3699324.67,-1.93,-0.092,191.661,-1.881,-9.079,-0.048
349801,2267,35.67872153,139.76372534,41.042,-3959616.567,3350434.867,3699317.357,-2.651,0.029,192.301,-1.909,-8.842,-0.045
349802,2267,35.67864389,139.76370409,41.016,-3959619.144,3350439.568,3699310.344,-2.56,0.311,192.846,-1.892,-8.288,-0.001
349803,2267,35.67857339,139.76368367,41.029,-3959621.44,3350443.933,3699303.998,-1.283,0.275,193.177,-1.737,-7.349,0.025
349804,2267,35.67851152,139.7636657,41.007,-3959623.432,3350447.749,3699298.409,-1.407,-0.005,193.542,-1.523,-6.367,-0.081
349805,2267,35.67845474,139.7636487,40.971,-3959625.221,3350451.279,3699293.27,-1.869,0.418,194.114,-1.57,-6.298,0.028
349806,2267,35.67839861,139.763631,40.962,-3959626.953,3350454.843,3699288.206,-1.95,0.261,194.777,-1.626,-6.173,-0.045
349807,2267,35.67834354,139.76361284,40.943,-3959628.6,3350458.39,3699283.232,-1.897,0.049,195.223,-1.621,-5.973,0.02
349808,2267,35.67829359,139.76359619,40.929,-3959630.085,3350461.622,3699278.722,-2.066,0.021,195.216,-1.392,-5.138,0.019
349809,2267,35.67825105,139.76358204,40.904,-3959631.343,3350464.365,3699274.873,-2.072,0.273,195.097,-1.197,-4.359,0.018
349810,2267,35.67821415,139.7635699,40.898,-3959632.453,3350466.743,3699271.544,-2.204,0.819,194.971,-1.042,-3.881,0.008
349811,2267,35.67818029,139.76355879,40.918,-3959633.488,3350468.936,3699268.504,-2.111,0.68,194.807,-0.972,-3.611,-0.045
349812,2267,35.67814781,139.76354832,40.939,-3959634.493,3350471.029,3699265.589,-2.086,0.569,194.531,-0.914,-3.526,-0.037
349813,2267,35.67811667,139.76353901,40.952,-3959635.495,3350472.981,3699262.79,-2.152,1.36,191.47,-0.708,-3.38,0.07
349814,2267,35.67808966,139.76353395,40.994,-3959636.56,3350474.481,3699260.38,-1.925,1.834,183.34,-0.217,-2.735,0.052
349815,2267,35.67806607,139.7635345,41.044,-3959637.788,3350475.456,3699258.283,-1.568,1.479,170.338,0.337,-2.508,0.051
349816,2267,35.6780443,139.76354207,41.074,-3959639.325,3350475.858,3699256.338,-1.324,1.21,153.517,1.088,-2.401,0.034
349817,2267,35.67802242,139.76356036,41.091,-3959641.486,3350475.518,3699254.376,-1.184,1.3,135.305,2.326,-2.549,0.026
349818,2267,35.67800097,139.76359418,41.119,-3959644.541,3350474.092,3699252.459,-1.543,0.758,120.196,3.683,-2.173,0.03
349819,2267,35.67798176,139.76364164,41.115,-3959648.262,3350471.613,3699250.725,-1.87,0.23,112.964,4.83,-2.09,-0.065
349820,2267,35.67796373,139.76369994,41.092,-3959652.548,3350468.325,3699249.087,-1.834,0.614,108.561,5.786,-1.944,-0.018
349821,2267,35.67794575,139.76376889,41.071,-3959657.455,3350464.301,3699247.454,-1.694,0.412,106.865,6.529,-1.984,-0.034
349822,2267,35.67792871,139.76384003,41.081,-3959662.463,3350460.102,3699245.924,-1.721,0.58,106.17,6.343,-1.845,0.025
349823,2267,35.67791249,139.76390919,41.101,-3959667.321,3350456.011,3699244.474,-1.58,0.565,105.883,6.194,-1.774,0.043
349824,2267,35.67789739,139.7639751,41.113,-3959671.929,3350452.093,3699243.12,-1.552,0.414,105.45,5.642,-1.549,-0.02
349825,2267,35.67788458,139.76403312,41.132,-3959675.966,3350448.629,3699241.977,-1.63,0.408,104.895,4.835,-1.291,0.022
349826,2267,35.6778741,139.76408189,41.144,-3959679.343,3350445.703,3699241.039,-1.644,0.399,104.7,3.994,-1.036,0.007
349827,2267,35.67786575,139.76412137,41.154,-3959682.07,3350443.329,3699240.292,-1.837,0.379,104.628,3.194,-0.834,-0
349828,2267,35.67785874,139.76415427,41.158,-3959684.343,3350441.35,3699239.663,-1.773,0.4,104.579,2.733,-0.709,0.011
349829,2267,35.67785308,139.76418081,41.161,-3959686.177,3350439.754,3699239.154,-1.679,0.345,104.523,2.082,-0.546,0.002
349830,2267,35.67784876,139.76420116,41.163,-3959687.581,3350438.529,3699238.766,-1.628,0.382,104.486,1.61,-0.413,0.013
349831,2267,35.67784545,139.76421672,41.161,-3959688.653,3350437.591,3699238.467,-1.55,0.474,104.466,1.233,-0.321,-0.001
349832,2267,35.67784295,139.76422858,41.166,-3959689.473,3350436.879,3699238.244,-1.597,0.444,104.435,0.909,-0.231,0.003
349833,2267,35.67784125,139.76423669,41.168,-3959690.033,3350436.39,3699238.092,-1.587,0.425,104.427,0.549,-0.142,0.003
349834,2267,35.67784019,139.76424175,41.169,-3959690.382,3350436.085,3699237.997,-1.599,0.495,104.418,0.451,-0.118,0.004
349835,2267,35.67783903,139.76424736,41.171,-3959690.768,3350435.747,3699237.894,-1.612,0.585,104.411,0.643,-0.171,0
349836,2267,35.67783705,139.76425687,41.174,-3959691.424,3350435.174,3699237.717,-1.634,0.617,104.392,1.063,-0.264,0.006
349837,2267,35.67783384,139.76427231,41.177,-3959692.487,3350434.243,3699237.43,-1.558,0.924,104.339,2.028,-0.517,0.013
349838,2267,35.67782716,139.76430441,41.19,-3959694.703,3350432.311,3699236.835,-1.464,0.902,104.303,3.716,-0.948,0.013
349839,2267,35.67781701,139.76435297,41.21,-3959698.056,3350429.389,3699235.932,-1.237,0.833,104.544,5.031,-1.29,0.026
349840,2267,35.67780419,139.76441353,41.234,-3959702.246,3350425.753,3699234.791,-1.582,0.9,104.784,5.986,-1.549,0.032
349841,2267,35.67778869,139.76448506,41.269,-3959707.216,3350421.475,3699233.414,-1.607,0.901,105.339,6.897,-1.901,0.035
349842,2267,35.6777708,139.7645641,41.293,-3959712.736,3350416.773,3699231.816,-1.244,0.612,105.4,7.377,-2.031,0.017
349843,2267,35.67775235,139.76464759,41.315,-3959718.544,3350411.786,3699230.166,-1.327,0.541,105.072,7.707,-2.092,0.02
349844,2267,35.67773333,139.76473494,41.286,-3959724.573,3350406.529,3699228.434,-0.984,0.141,104.813,8.146,-2.159,-0.032
349845,2267,35.67771362,139.76482718,41.234,-3959730.908,3350400.951,3699226.628,-1.139,0.283,104.815,8.492,-2.204,-0.039
349846,2267,35.67769295,139.76492265,41.218,-3959737.502,3350395.209,3699224.755,-1.225,0.259,105.109,8.77,-2.339,0.032
349847,2267,35.67767115,139.76502034,41.204,-3959744.283,3350389.361,3699222.782,0.584,0.288,105.084,8.87,-2.434,-0.098
349848,2267,35.67764984,139.76511814,41.187,-3959751.044,3350383.484,3699220.852,0.07,-0.116,104.926,8.757,-2.319,-0.161
349849,2267,35.67762907,139.76521473,41.111,-3959757.671,3350377.637,3699218.935,-0.098,0.166,104.83,8.679,-2.281,-0.049
349850,2267,35.67760888,139.76530951,41.123,-3959764.218,3350371.937,3699217.123,-0.657,0.391,104.946,8.469,-2.228,0.001
349851,2267,35.67758901,139.76540188,41.141,-3959770.612,3350366.393,3699215.342,-0.755,0.239,104.613,8.247,-2.13,-0.016
349852,2267,35.67757074,139.76549001,41.147,-3959776.672,3350361.069,3699213.699,-0.541,0.248,103.773,7.596,-1.871,0.006
349853,2267,35.67755551,139.76556867,41.158,-3959782.031,3350356.275,3699212.333,-0.162,0.248,102.942,6.718,-1.559,0.014
349854,2267,35.67754225,139.76564064,41.17,-3959786.901,3350351.861,3699211.145,0.101,0.753,102.442,6.317,-1.388,0.037
349855,2267,35.6775305,139.76570908,41.215,-3959791.512,3350347.646,3699210.112,-0.456,0.872,101.613,6.102,-1.245,0.05
349856,2267,35.67751962,139.76577692,41.288,-3959796.061,3350343.451,3699209.174,-0.901,0.974,101.438,6.369,-1.242,0.074
349857,2267,35.6775063,139.76585105,41.354,-3959801.095,3350338.919,3699208.012,-0.745,1.512,103.582,7.114,-1.691,0.108
349858,2267,35.67748959,139.76593402,41.503,-3959806.865,3350333.961,3699206.593,-1.133,1.514,104.477,7.862,-1.984,0.134
349859,2267,35.67747076,139.76602266,41.624,-3959813.053,3350328.686,3699204.966,-0.711,1.258,104.651,8.167,-2.135,0.103
349860,2267,35.67745099,139.76611578,41.739,-3959819.546,3350323.137,3699203.252,-1.048,1.454,104.724,8.689,-2.25,0.155
349861,2267,35.67743008,139.76621409,41.862,-3959826.404,3350317.281,3699201.439,-1.49,0.989,104.905,9.085,-2.4,0.07
349862,2267,35.67740777,139.76631608,41.976,-3959833.541,3350311.224,3699199.494,-1.748,1.34,105.213,9.334,-2.505,0.157
349863,2267,35.67738542,139.76641752,42.093,-3959840.649,3350305.209,3699197.548,-1.73,0.836,104.934,8.956,-2.396,0.076
349864,2267,35.67736502,139.76651408,42.193,-3959847.365,3350299.441,3699195.768,-2.147,1.154,104.285,8.654,-2.187,0.123
349865,2267,35.67734546,139.76661085,42.298,-3959854.055,3350293.625,3699194.066,-2.321,1.125,103.651,8.85,-2.158,0.059
349866,2267,35.67732635,139.76671014,42.413,-3959860.876,3350287.622,3699192.411,-2.35,1.093,102.854,9.069,-2.071,0.084
349867,2267,35.67730838,139.76681243,42.455,-3959867.771,3350281.326,3699190.816,-1.614,0.431,101.116,9.401,-1.911,-0.053
349868,2267,35.6772926,139.76691815,42.475,-3959874.745,3350274.689,3699189.405,-0.281,0.984,98.779,9.686,-1.52,0.087
349869,2267,35.67728085,139.76702429,42.578,-3959881.595,3350267.899,3699188.406,-0.22,1.116,97.077,9.366,-1.137,0.073
349870,2267,35.67726961,139.76712717,42.611,-3959888.187,3350261.276,3699187.412,-0.516,-0.068,98.735,9.215,-1.383,-0.065
349871,2267,35.67725415,139.76722813,42.51,-3959894.792,3350254.891,3699185.96,-1.04,-0.79,104.188,9.066,-2.203,-0.137
349872,2267,35.67722798,139.76732877,42.289,-3959901.832,3350248.913,3699183.473,-0.661,-0.781,111.154,9.179,-3.519,-0.259
349873,2267,35.67719287,139.76743149,42.13,-3959909.474,3350243.198,3699180.215,-1.18,0.572,113.795,9.434,-4.128,0.064
349874,2267,35.67715488,139.76753545,42.113,-3959917.419,3350237.592,3699176.781,-1.349,0.436,114.678,9.408,-4.267,0.008
349875,2267,35.67711523,139.76763928,42.094,-3959925.437,3350232.063,3699173.197,-0.956,0.103,115.521,9.338,-4.48,-0.095
349876,2267,35.67707416,139.76774295,42.097,-3959933.53,3350226.616,3699169.497,-0.917,0.779,116.261,9.407,-4.635,0.063
349877,2267,35.67703184,139.76784711,42.154,-3959941.747,3350221.216,3699165.716,-0.736,0.71,116.701,9.518,-4.744,0.07
349878,2267,35.6769884,139.76795274,42.212,-3959950.105,3350215.762,3699161.834,-0.872,0.94,116.826,9.568,-4.848,0.097
349879,2267,35.67694534,139.76805732,42.291,-3959958.396,3350210.375,3699158,-0.806,0.833,116.753,9.389,-4.727,0.084
349880,2267,35.67690333,139.76816016,42.35,-3959966.522,3350205.054,3699154.248,-0.838,0.838,116.49,9.197,-4.589,0.056
349881,2267,35.67686244,139.76826054,42.415,-3959974.451,3350199.859,3699150.6,-0.874,0.656,116.713,8.951,-4.497,-0.015
349882,2267,35.67682157,139.76835953,42.461,-3959982.287,3350194.75,3699146.943,-0.971,0.639,117.043,8.997,-4.532,0.056
349883,2267,35.67678003,139.76845836,42.451,-3959990.112,3350189.65,3699143.193,0.191,0.359,117.122,8.948,-4.598,-0.085
349884,2267,35.67673819,139.76855859,42.439,-3959998.032,3350184.465,3699139.415,-0.912,0.299,117.394,9.19,-4.778,0.081
349885,2267,35.67669552,139.76866052,42.388,-3960006.068,3350179.177,3699135.54,-0.953,0.61,116.879,9.301,-4.713,0.011
349886,2267,35.67665337,139.7687633,42.444,-3960014.195,3350173.864,3699131.774,-1.208,0.372,116.612,9.263,-4.619,-0.021
349887,2267,35.67661296,139.76886276,42.477,-3960022.027,3350168.696,3699128.151,-1.528,0.492,116.647,8.713,-4.356,0.019
349888,2267,35.67657425,139.76895464,42.497,-3960029.325,3350163.974,3699124.673,-1.68,0.458,119.081,7.845,-4.323,0.008
349889,2267,35.67653463,139.76903587,42.53,-3960036.052,3350160.033,3699121.122,-1.691,0.543,123.194,6.829,-4.467,0.026
349890,2267,35.67649538,139.76910718,42.538,-3960042.166,3350156.749,3699117.589,-1.397,0.194,124.156,6.159,-4.178,-0.026
349891,2267,35.67645933,139.76917359,42.527,-3960047.823,3350153.66,3699114.333,-0.829,0.783,122.219,5.911,-3.73,0.005
349892,2267,35.67642824,139.76923691,42.582,-3960053.095,3350150.612,3699111.563,-1.169,0.711,119.808,5.444,-3.105,0.056
349893,2267,35.6764027,139.76929368,42.606,-3960057.691,3350147.768,3699109.275,-1.289,0.459,118.136,4.818,-2.586,-0.003
349894,2267,35.67638171,139.7693424,42.63,-3960061.592,3350145.29,3699107.397,-1.176,0.557,117.583,3.98,-2.088,0.005
349895,2267,35.67636477,139.76938213,42.648,-3960064.763,3350143.262,3699105.881,-0.918,0.533,117.391,3.298,-1.71,0.022
349896,2267,35.67635081,139.76941525,42.661,-3960067.397,3350141.563,3699104.63,-0.821,0.705,117.214,2.769,-1.418,0.02
349897,2267,35.67633906,139.76944328,42.677,-3960069.626,3350140.125,3699103.581,-0.812,0.635,117.273,2.275,-1.154,-0.004
349898,2267,35.67632971,139.76946553,42.688,-3960071.396,3350138.984,3699102.744,-0.689,0.518,117.155,1.752,-0.87,0.027
349899,2267,35.67632298,139.76948166,42.691,-3960072.674,3350138.152,3699102.139,-0.584,0.595,117.034,1.192,-0.626,-0.002
349900,2267,35.67631854,139.76949229,42.698,-3960073.519,3350137.606,3699101.743,-0.455,0.454,117.001,0.717,-0.364,0.006
349901,2267,35.67631626,139.76949774,42.696,-3960073.949,3350137.324,3699101.537,-0.392,0.595,116.959,0.368,-0.18,0.006
349902,2267,35.67631514,139.76950048,42.698,-3960074.166,3350137.182,3699101.437,-0.439,0.614,116.951,0.129,-0.063,0
349903,2267,35.676315,139.76950082,42.698,-3960074.192,3350137.165,3699101.424,-0.434,0.657,116.947,-0.004,0.002,0.002
349904,2267,35.676315,139.76950082,42.698,-3960074.192,3350137.165,3699101.424,-0.433,0.665,116.947,-0.002,0.002,0
349905,2267,35.676315,139.76950082,42.698,-3960074.192,3350137.165,3699101.424,-0.441,0.671,116.948,0.022,-0.011,-0.001
349906,2267,35.676315,139.76950082,42.698,-3960074.192,3350137.165,3699101.424,-0.437,0.669,116.944,0.001,-0.001,-0.002
349907,2267,35.676315,139.76950082,42.698,-3960074.192,3350137.165,3699101.424,-0.438,0.67,116.944,0.003,-0.002,-0
349908,2267,35.676315,139.76950082,42.698,-3960074.192,3350137.165,3699101.424,-0.44,0.67,116.944,0.006,-0.004,-0.001
349909,2267,35.676315,139.76950082,42.698,-3960074.192,3350137.165,3699101.424,-0.438,0.671,116.944,0,-0.001,-0
349910,2267,35.676315,139.76950082,42.698,-3960074.192,3350137.165,3699101.424,-0.438,0.671,116.945,-0.001,-0,0
349911,2267,35.676315,139.76950082,42.698,-3960074.192,3350137.165,3699101.424,-0.438,0.67,116.945,-0.002,0,0.001
349912,2267,35.67631499,139.76950084,42.697,-3960074.194,3350137.163,3699101.423,-0.441,0.712,116.945,0.028,-0.013,-0.009
349913,2267,35.67631394,139.76950335,42.697,-3960074.392,3350137.034,3699101.328,-0.425,0.846,116.904,0.424,-0.214,-0.001
349914,2267,35.67631052,139.76951157,42.697,-3960075.042,3350136.608,3699101.02,-0.403,1.178,116.718,1.147,-0.561,-0.002
349915,2267,35.67630206,139.76953192,42.714,-3960076.66,3350135.564,3699100.267,-0.007,0.872,116.721,2.391,-1.232,0.036
349916,2267,35.67628909,139.76956318,42.726,-3960079.136,3350133.952,3699099.105,0.478,0.881,116.598,3.244,-1.625,0.026
349917,2267,35.67627312,139.7696025,42.753,-3960082.241,3350131.916,3699097.682,0.351,0.974,116.387,3.815,-1.85,0.05
349918,2267,35.67625562,139.76964451,42.793,-3960085.587,3350129.765,3699096.128,-0.341,1.009,120.694,3.626,-2.069,0.042
349919,2267,35.67623333,139.76968214,42.844,-3960088.92,3350128.122,3699094.148,-0.304,0.736,134.32,3.12,-2.869,0.053
349920,2267,35.67620386,139.76970984,42.862,-3960092.006,3350127.449,3699091.503,-0.81,0.692,154.963,1.818,-3.64,0.001
349921,2267,35.67616888,139.76972199,42.862,-3960094.445,3350128.071,3699088.35,-0.931,-0.496,176.029,0.416,-4.041,-0.048
349922,2267,35.67613122,139.76971909,42.783,-3960096.087,3350129.804,3699084.91,-1.449,-0.576,192.505,-0.897,-4.421,-0.123
349923,2267,35.67608853,139.76970296,42.703,-3960097.203,3350132.661,3699081.015,-1.524,-0.27,201.497,-1.931,-4.977,-0.065
349924,2267,35.67604331,139.769679,42.64,-3960097.997,3350136.174,3699076.903,-1.158,-0.4,205.397,-2.358,-5.027,-0.004
349925,2267,35.67599888,139.76965193,42.574,-3960098.568,3350139.867,3699072.86,-1.244,0.039,207.474,-2.507,-4.859,-0.088
349926,2267,35.67595546,139.76962395,42.56,-3960099.068,3350143.608,3699068.938,-0.912,0.272,207.959,-2.551,-4.782,0.048
349927,2267,35.67591303,139.76959642,42.548,-3960099.547,3350147.278,3699065.107,-0.564,0.191,207.67,-2.44,-4.636,-0.03
349928,2267,35.67587138,139.76957021,42.535,-3960100.064,3350150.823,3699061.345,-0.514,0.213,206.762,-2.376,-4.756,-0.014
349929,2267,35.67582553,139.76954256,42.53,-3960100.71,3350154.648,3699057.21,-0.693,0.381,206.075,-2.624,-5.416,-0.003
349930,2267,35.67577394,139.76951171,42.51,-3960101.442,3350158.926,3699052.548,-0.948,0.464,206.268,-2.928,-6.003,-0.001
349931,2267,35.67571805,139.76947787,42.482,-3960102.207,3350163.586,3699047.495,-0.911,0.225,206.515,-3.087,-6.241,-0.009
349932,2267,35.67566107,139.76944333,42.46,-3960102.989,3350168.343,3699042.346,-1.46,0.001,206.629,-3.189,-6.417,-0.02
349933,2267,35.67560224,139.76940739,42.408,-3960103.761,3350173.258,3699037.013,-1.372,0.111,206.62,-3.294,-6.614,-0.04
349934,2267,35.67554251,139.76937083,42.383,-3960104.559,3350178.268,3699031.615,-1.005,0.335,206.553,-3.304,-6.665,-0.01
349935,2267,35.67548091,139.76933387,42.371,-3960105.433,3350183.391,3699026.056,-1.562,0.589,206.259,-3.405,-7.018,0.034
349936,2267,35.67541585,139.76929443,42.405,-3960106.362,3350188.854,3699020.212,-1.945,1.207,206.862,-3.736,-7.394,-0.014
349937,2267,35.67534712,139.76925151,42.52,-3960107.319,3350194.753,3699014.084,-1.19,1.254,207.092,-3.975,-7.798,0.148
349938,2267,35.67527515,139.76920681,42.61,-3960108.317,3350200.898,3699007.65,-1.635,0.805,207.126,-4.132,-8.119,0.074
349939,2267,35.67520174,139.76916068,42.642,-3960109.266,3350207.171,3699001.052,-1.684,0.843,207.344,-4.204,-8.127,0.021
349940,2267,35.6751274,139.76911375,42.691,-3960110.224,3350213.547,3698994.38,-1.541,0.39,207.519,-4.289,-8.228,0.015
349941,2267,35.67505377,139.76906669,42.668,-3960111.096,3350219.865,3698987.731,-1.407,-0.07,207.65,-4.236,-8.098,-0.056
349942,2267,35.67498092,139.76902013,42.572,-3960111.913,3350226.077,3698981.109,-2.211,-0.524,208.743,-4.275,-7.993,-0.13
349943,2267,35.67491052,139.76896939,42.411,-3960112.324,3350232.442,3698974.669,-2.49,-0.919,213.397,-4.939,-7.584,-0.175
349944,2267,35.67484361,139.76891025,42.262,-3960112.079,3350239.247,3698968.552,-1.721,-0.383,218.708,-5.81,-7.324,-0.124
349945,2267,35.67477844,139.76884135,42.142,-3960111.195,3350246.67,3698962.608,-1.317,-0.204,222.839,-6.6,-7.163,-0.174
349946,2267,35.67471259,139.76876521,42.053,-3960109.94,3350254.638,3698956.621,-1.707,0.077,223.643,-7.098,-7.471,-0.078
349947,2267,35.67464319,139.76868548,42.004,-3960108.676,3350263.023,3698950.337,-1.407,0.077,222.656,-7.284,-7.914,-0.059
349948,2267,35.67456986,139.76860417,41.954,-3960107.513,3350271.682,3698943.698,-1.146,0.198,221.56,-7.335,-8.295,-0.075
349949,2267,35.6744944,139.76852361,41.934,-3960106.518,3350280.393,3698936.885,-1.406,0.397,220.816,-7.216,-8.398,-0.022
349950,2267,35.67441866,139.76844441,41.956,-3960105.642,3350289.044,3698930.072,-1.588,0.46,220.431,-7.156,-8.412,0.031
349951,2267,35.67434269,139.76836572,41.973,-3960104.804,3350297.667,3698923.234,-1.656,0.452,220.229,-7.121,-8.435,0.003
349952,2267,35.67426651,139.76828732,41.996,-3960103.997,3350306.281,3698916.381,-1.61,0.534,220.066,-7.09,-8.471,0.037
349953,2267,35.67419036,139.76820936,42.004,-3960103.205,3350314.856,3698909.522,-1.651,0.373,219.922,-7.029,-8.406,-0.002
349954,2267,35.67411524,139.76813197,41.998,-3960102.387,3350323.341,3698902.748,-1.398,0.567,220.489,-7.055,-8.271,0.105
349955,2267,35.67404143,139.76805423,41.979,-3960101.475,3350331.789,3698896.084,-1.795,1.032,221.13,-7.186,-8.224,0.321
349956,2267,35.67396767,139.76797547,42.041,-3960100.552,3350340.348,3698889.472,-1.728,0.756,221.263,-7.212,-8.232,0.074
349957,2267,35.67389301,139.76789543,42.085,-3960099.587,3350349.023,3698882.768,-1.925,0.704,221.351,-7.266,-8.31,0.047
349958,2267,35.67381815,139.76781455,42.161,-3960098.603,3350357.782,3698876.065,-0.805,-0.031,221.295,-7.318,-8.379,0.03
349959,2267,35.67374236,139.76773416,42.108,-3960097.613,3350366.478,3698869.203,-1.683,0.438,220.911,-7.31,-8.425,0.003
349960,2267,35.67366574,139.76765364,42.125,-3960096.7,3350375.254,3698862.307,-1.632,0.479,220.673,-7.325,-8.516,0.031
349961,2267,35.67358962,139.76757364,42.134,-3960095.788,3350383.969,3698855.451,-1.775,0.406,220.871,-7.153,-8.282,-0.003
349962,2267,35.6735167,139.76749675,42.14,-3960094.897,3350392.334,3698848.882,-1.712,0.41,220.727,-6.726,-7.856,0.073
349963,2267,35.67344913,139.76742584,42.186,-3960094.117,3350400.083,3698842.819,-1.573,0.301,220.649,-6.046,-7.057,0.02
349964,2267,35.67338998,139.76736364,42.197,-3960093.409,3350406.86,3698837.494,-1.5,0.369,220.904,-5.229,-6.05,0.018
349965,2267,35.6733398,139.76731044,42.213,-3960092.786,3350412.643,3698832.98,-1.71,0.12,221.213,-4.411,-5.078,-0.025
349966,2267,35.67329812,139.76726585,42.224,-3960092.245,3350417.472,3698829.23,-1.697,0.278,221.29,-3.743,-4.306,-0.005
349967,2267,35.67326109,139.76722647,42.226,-3960091.772,3350421.743,3698825.893,-1.862,0.381,221.114,-3.397,-3.969,0.015
349968,2267,35.67322668,139.76719008,42.247,-3960091.357,3350425.707,3698822.804,-1.882,0.227,220.806,-3.182,-3.648,0.026
349969,2267,35.67319515,139.76715705,42.247,-3960090.983,3350429.308,3698819.962,-1.806,0.432,220.518,-2.903,-3.354,0.018
349970,2267,35.67316581,139.76712668,42.262,-3960090.666,3350432.641,3698817.326,-2.387,0.229,220.487,-2.616,-3.104,0.05
349971,2267,35.67314069,139.76710047,42.273,-3960090.381,3350435.508,3698815.069,-2.042,0.531,220.42,-2.193,-2.469,0.138
349972,2267,35.67312055,139.7670795,42.288,-3960090.159,3350437.807,3698813.262,-1.859,0.46,220.671,-1.748,-2.066,0.014
349973,2267,35.67310338,139.76706158,42.298,-3960089.965,3350439.768,3698811.72,-1.864,0.43,220.87,-1.502,-1.748,-0.004
349974,2267,35.67308887,139.76704633,42.303,-3960089.793,3350441.431,3698810.415,-1.882,0.527,220.996,-1.261,-1.467,0.007
349975,2267,35.67307729,139.76703413,42.311,-3960089.657,3350442.763,3698809.376,-1.864,0.553,221.032,-0.905,-1.049,0.005
349976,2267,35.67307035,139.76702688,42.317,-3960089.579,3350443.557,3698808.754,-1.894,0.594,221.041,-0.426,-0.498,0.006
349977,2267,35.67306807,139.76702452,42.322,-3960089.557,3350443.818,3698808.552,-1.916,0.543,221.026,-0.008,-0.019,0.002
349978,2267,35.67306807,139.76702452,42.322,-3960089.557,3350443.818,3698808.552,-1.903,0.668,221.023,-0,-0.005,-0
349979,2267,35.67306807,139.76702452,42.322,-3960089.557,3350443.818,3698808.552,-1.904,0.67,221.023,0.003,-0.003,0.001
349980,2267,35.67306807,139.76702452,42.322,-3960089.557,3350443.818,3698808.552,-1.897,0.667,221.023,0.002,-0.001,0.004
349981,2267,35.67306807,139.76702452,42.322,-3960089.557,3350443.818,3698808.552,-1.903,0.669,221.023,0,-0.003,0
349982,2267,35.67306807,139.76702452,42.322,-3960089.557,3350443.818,3698808.552,-1.903,0.668,221.023,0.003,0,0.001
349983,2267,35.67306807,139.76702452,42.322,-3960089.557,3350443.818,3698808.552,-1.896,0.669,221.022,0.001,0.001,0.002
349984,2267,35.67306807,139.76702452,42.322,-3960089.557,3350443.818,3698808.552,-1.899,0.668,221.022,-0.002,-0.002,-0.001
349985,2267,35.67306807,139.76702452,42.322,-3960089.557,3350443.818,3698808.552,-1.895,0.669,221.022,0.004,0,0.002
349986,2267,35.67306807,139.76702452,42.322,-3960089.557,3350443.818,3698808.552,-1.894,0.671,221.022,0,-0.003,0.003
349987,2267,35.67306807,139.76702452,42.322,-3960089.557,3350443.818,3698808.552,-1.897,0.668,221.022,-0.002,-0.002,-0
349988,2267,35.67306807,139.76702452,42.322,-3960089.557,3350443.818,3698808.552,-1.896,0.668,221.022,0.003,0.001,0.002
349989,2267,35.67306807,139.76702452,42.322,-3960089.557,3350443.818,3698808.552,-1.897,0.669,221.022,0.001,0.001,0.002
349990,2267,35.67306807,139.76702452,42.322,-3960089.557,3350443.818,3698808.552,-1.896,0.669,221.022,-0.001,-0,0
