     3.03           OBSERVATION DATA    M: Mixed            RINEX VERSION / TYPE
                                        20240711 231447 UTC PGM / RUN BY / DATE 
                                                            MARKER NAME         
                                                            MARKER NUMBER       
                                                            MARKER TYPE         
                                                            OBSERVER / AGENCY   
                                                            REC # / TYPE / VERS 
                                                            ANT # / TYPE        
        0.0000        0.0000        0.0000                  APPROX POSITION XYZ 
        0.0000        0.0000        0.0000                  ANTENNA: DELTA H/E/N
G    8 C1C L1C D1C S1C C2L L2L D2L S2L                      SYS / # / OBS TYPES 
R    8 C1C L1C D1C S1C C2C L2C D2C S2C                      SYS / # / OBS TYPES 
E    8 C1C L1C D1C S1C C7Q L7Q D7Q S7Q                      SYS / # / OBS TYPES 
J    8 C1C L1C D1C S1C C2L L2L D2L S2L                      SYS / # / OBS TYPES 
C    8 C7I L7I D7I S7I C2I L2I D2I S2I                      SYS / # / OBS TYPES 
  2023    06    22    01    09   00.0060000     GPS         TIME OF FIRST OBS   
  2023    06    22    01    13   10.0060000     GPS         TIME OF LAST OBS    
G L1C                                                       SYS / PHASE SHIFT   
G L2L  0.00000                                              SYS / PHASE SHIFT   
R L1C                                                       SYS / PHASE SHIFT   
R L2C                                                       SYS / PHASE SHIFT   
E L1C  0.00000                                              SYS / PHASE SHIFT   
E L7Q  0.00000                                              SYS / PHASE SHIFT   
J L1C                                                       SYS / PHASE SHIFT   
J L2L  0.00000                                              SYS / PHASE SHIFT   
C L7I                                                       SYS / PHASE SHIFT   
C L2I                                                       SYS / PHASE SHIFT   
  0                                                         GLONASS SLOT / FRQ #
 C1C    0.000 C1P    0.000 C2C    0.000 C2P    0.000        GLONASS COD/PHS/BIS 
                                                            END OF HEADER       
> 2023 06 22 01 09 00.0060000  0 35                     
G01  21952219.985   115359707.564       -1450.950          50.000    21952220.572    89890746.264       -1130.669          45.000  
G02  23542846.955   123718520.221       -1989.293          33.000                                                                  
G03  23008205.922   120908917.085        2268.176          40.000    23008206.763    94214759.6122       1766.378          19.000  
G08                                                                  24796487.739   101537655.167       -1911.576          29.000  
G14  22678934.968   119178624.228        1167.523          32.000    22678921.693    92866392.0382        907.571          23.000  
G17                                                                  24868491.521   101832315.1202       1640.719          15.000  
R03                                                                  25592816.559   106555834.474       -1791.541          25.000  
R04  23632456.465   126550755.748         717.256          34.000    23632579.945    98428873.0172        557.892          28.000  
R05  24252485.292   129643472.0832       3382.859          29.000                                                                  
R09  23062682.309   123153420.898       -3913.023          38.000    23062806.628    95786566.887       -3043.385          40.000  
R10  21946670.394   116988233.912        -990.338          32.000                                                                  
R19  23973653.238   128242878.5742      -2583.741          24.000                                                                  
R20  21952585.896   117390331.418        -103.604          26.000    21952574.006    91303550.2072        -80.444          26.000  
R21                                                                  25065311.422   104323088.896        1721.450          26.000  
E02  26717618.188   140402054.472       -2671.810          37.000    26717881.325   107581846.650       -2046.796          27.000  
E15                                                                  27200798.673   109526252.750        1108.518          27.000  
E30  25439401.171   133684956.401        -140.897          37.000    25439404.555   102433965.679        -107.913          42.000  
E34  25227101.827   132569316.038        -543.991          49.000    25227105.434   101579110.913        -416.751          50.000  
E36                                                                  27585921.031   111077058.956       -1729.794          32.000  
J02  38896571.204   204402881.961         312.255          47.000    38896571.870   159274963.322         243.210          47.000  
J03  40437898.632   212502601.340        -618.419          44.000    40437900.881   165586525.435        -481.853          47.000  
J04  38508891.124   202365803.502          -6.282          38.000    38508895.706   157688007.689          -4.597          39.000  
J07  39036493.795   205138170.775        -147.212          36.000    39036496.465   159847931.076        -114.388          44.000  
C01  38675818.220   155731525.529         -71.161          49.000    38675820.788   201395479.950         -91.963          45.000  
C03  39386653.185   158593731.7782        -77.319          30.000    39386651.472   205096629.775         -99.801          33.000  
C04  39151640.452   157647604.338         -91.261          36.000    39151695.782   203873153.6382       -118.290          30.000  
C07  38168875.393   153690192.802         218.525          37.000    38168893.668   198755379.025         281.931          34.000  
C10  39028451.059   157151479.489         394.530          29.000                                                                  
C19                                                                  25888203.592   134806510.808        2183.398          28.000  
C20                                                                  25823583.679   134470176.6242       -214.416          21.000  
C35                                                                  23747591.569   123659951.038         512.327          38.000  
C38                                                                  39705135.256   206755058.2322        932.535          22.000  
C40                                                                  37842307.550   197054829.088         368.622          52.000  
C45                                                                  26462016.014   137794654.488       -3191.842          38.000  
C59                                                                  38960031.721   202875106.488        -125.935          49.000  
> 2023 06 22 01 09 01.0060000  0 35                     
G01  21952496.164   115361158.594       -1451.492          50.000    21952496.629    89891876.935       -1131.003          45.000  
G02  23543224.436   123720509.513       -1989.774          35.000                                                                  
G03  23007774.428   120906648.879        2267.865          40.000    23007767.910    94212962.2853       1769.570          21.000  
G08                                                                  24796949.905   101539567.011       -1912.158          29.000  
G14  22678714.115   119177457.080        1167.029          31.000    22678700.397    92865486.5703        919.358          23.000  
G17                                                                  24868091.055   101830674.5973       1636.131          16.000  
R03                                                                  25593247.271   106557625.501       -1791.022          25.000  
R04  23632323.103   126550038.725         716.524          36.000    23632437.778    98428315.4502        557.067          28.000  
R05  24251858.928   129640087.4321       3383.559          31.000                                                                  
R09  23063414.979   123157333.623       -3913.481          36.000    23063539.313    95789610.156       -3043.491          42.000  
R10  21946856.151   116989224.674        -991.544          31.000                                                                  
R19  23974138.633   128245475.5773      -2581.874          24.000    23974158.953    99746552.5433      -2009.178          27.000  
R20  21952605.484   117390435.046        -103.419          26.000    21952593.680    91303630.3913        -80.707          27.000  
R21  25064898.366   134127333.8333       2214.367          25.000    25064897.790   104321366.630        1722.212          27.000  
E02  26718125.556   140404725.910       -2671.889          37.000    26718389.883   107583893.701       -2047.418          28.000  
E15                                                                  27200523.657   109525144.884        1107.885          28.000  
E30  25439427.609   133685097.326        -141.364          37.000    25439431.878   102434073.656        -108.204          42.000  
E34  25227205.251   132569859.940        -544.374          49.000    25227208.734   101579527.671        -417.108          50.000  
E36                                                                  27586350.394   111078788.765       -1730.124          32.000  
J02  38896511.836   204402569.559         312.115          47.000    38896512.442   159274719.883         243.357          47.000  
J03  40438016.264   212503219.710        -618.488          44.000    40438018.543   165587007.274        -482.015          47.000  
J04  38508892.526   202365809.165          -5.880          38.000    38508896.424   157688012.108          -4.316          39.000  
J07  39036521.764   205138317.543        -146.746          36.000    39036524.370   159848045.445        -114.338          44.000  
C01  38675835.829   155731596.551         -71.057          48.000    38675838.588   201395571.794         -92.106          45.000  
C03  39386672.430   158593808.4123        -76.492          30.000    39386670.485   205096728.9381       -100.021          33.000  
C04  39151663.014   157647695.810         -91.678          36.000    39151718.359   203873271.9523       -118.225          31.000  
C07  38168821.184   153689974.455         218.544          37.000    38168839.234   198755096.638         282.086          34.000  
C10  39028353.633   157151084.691         394.580          29.000                                                                  
C19                                                                  25887787.092   134804327.542        2183.127          28.000  
C20                                                                  25823632.941   134470433.3123       -219.164          23.000  
C35                                                                  23747493.458   123659438.487         512.297          39.000  
C38                                                                  39704955.004   206754119.8633        937.048          22.000  
C40                                                                  37842236.733   197054460.345         368.511          52.000  
C45                                                                  26462628.813   137797845.822       -3191.597          38.000  
C59                                                                  38960055.684   202875232.186        -125.958          49.000  
> 2023 06 22 01 09 02.0060000  0 35                     
G01  21952772.444   115362610.934       -1453.585          49.000    21952773.153    89893008.613       -1132.761          45.000  
G02  23543602.775   123722500.152       -1989.622          41.000                                                                  
G03  23007343.389   120904382.521        2261.660          37.000    23007331.336    94211175.4913       1767.245          33.000  
G08                                                                  24797416.621   101541479.452       -1912.691          34.000  
G14  22678493.076   119176290.787        1164.844          34.000    22678479.393    92864581.0071        908.661          31.000  
G17                                                                  24867691.976   101829040.6093       1634.032          14.000  
R04  23632189.650   126549323.601         713.368          31.000    23632299.395    98427758.1862        556.708          27.000  
R05  24251229.423   129636718.8213       3383.351          30.000    24251207.687   100828472.994        2631.790          24.000  
R09  23064147.454   123161245.071       -3905.870          33.000    23064288.017    95792674.4553      -3044.860          40.000  
R10  21947042.002   116990215.917        -991.656          24.000                                                                  
R11  24298058.034   129841466.2171       2828.594          30.000                                                                  
R19  23974623.794   128248070.5133      -2581.917          23.000    23974647.034    99748596.2143      -2001.753          26.000  
R20  21952624.429   117390537.763        -101.663          31.000                                                                  
R21  25064484.785   134125120.2743       2213.657          26.000    25064480.411   104319644.439        1721.890          28.000  
E02  26718632.083   140407396.475       -2668.226          38.000    26718898.642   107585942.209       -2051.331          28.000  
E15                                                                  27200249.868   109524037.151        1107.060          28.000  
E30  25439453.815   133685238.839        -145.265          35.000    25439459.136   102434181.983        -107.338          38.000  
E34  25227309.350   132570404.656        -546.009          50.000    25227312.688   101579945.101        -418.146          50.000  
E36                                                                  27586779.884   111080519.952       -1735.241          32.000  
J02  38896452.269   204402256.531         313.593          48.000    38896452.810   159274475.956         245.168          45.000  
J03  40438133.915   212503838.231        -618.925          43.000    40438136.295   165587489.244        -482.045          47.000  
J04  38508893.617   202365813.641          -3.499          37.000    38508897.009   157688015.503           0.043          34.000  
J07  39036549.475   205138463.230        -143.377          36.000    39036552.050   159848158.940        -111.217          43.000  
C01  38675853.266   155731666.804         -68.280          47.000    38675856.025   201395662.657         -89.340          46.000  
C03  39386691.557   158593886.1833        -73.529          30.000    39386689.326   205096826.4483        -96.881          33.000  
C04  39151684.953   157647611.3923        -89.071          34.000                                                                  
C07  38168766.901   153689756.093         218.300          29.000    38168780.788   198754857.5993        281.602          32.000  
C10  39028256.697   157150690.609         392.792          29.000                                                                  
C19                                                                  25887369.961   134802145.633        2184.655          29.000  
C20                                                                  25823684.017   134470698.6033       -224.773          24.000  
C35                                                                  23747395.546   123658926.816         511.471          38.000  
C38                                                                  39704767.034   206753140.4653        932.471          24.000  
C40                                                                  37842165.817   197054092.363         366.802          50.000  
C45                                                                  26463241.284   137801035.706       -3187.349          38.000  
C59                                                                  38960079.550   202875356.805        -122.039          49.000  
> 2023 06 22 01 09 03.0060000  0 36                     
G01  21953049.302   115364066.796       -1457.859          49.000    21953050.276    89894143.037       -1136.099          45.000  
G02  23543984.980   123724475.2493      -1997.211          36.000                                                                  
G03  23006912.853   120902142.1683       2260.789          38.000    23006894.001    94209384.5563       1762.911          30.000  
G08                                                                  24797886.065   101543193.6131      -1913.607          33.000  
G14  22678270.519   119175116.0853       1151.044          30.000    22678270.637    92863726.2063        905.498          26.000  
G17                                                                  24867287.776   101827385.3273       1654.863          15.000  
G21  24015833.231   126204054.6103      -2595.752          35.000                                                                  
R04  23632061.746   126548616.8273        705.848          34.000                                                                  
R05  24250586.072   129633280.3973       3391.278          28.000                                                                  
R09  23064883.218   123165189.4503      -3909.863          38.000    23065022.147    95795724.3473      -3043.106          36.000  
R10  21947228.755   116991071.6273       -990.053          37.000                                                                  
R11  24297531.942   129838643.0452       2817.852          29.000                                                                  
R19  23975106.919   128250654.5943      -2591.701          21.000                                                                  
R20  21952643.001   117390637.517         -98.036          32.000    21952629.455    91303780.2263        -76.823          26.000  
R21  25064068.474   134122892.7563       2214.387          31.000    25064068.423   104317921.727        1720.201          28.000  
E02  26719139.502   140410062.148       -2663.724          40.000    26719408.602   107587995.357       -2055.774          27.000  
E15                                                                  27199960.381   109522968.3893       1116.094          26.000  
E30  25439492.049   133685423.9881       -144.371          38.000    25439484.416   102434288.741        -104.961          28.000  
E34  25227412.219   132570951.608        -547.724          51.000    25227416.961   101580364.195        -420.054          52.000  
E36                                                                  27587210.429   111082255.954       -1737.455          32.000  
J02  38896392.061   204401940.277         317.319          46.000    38896392.663   159274229.560         247.121          45.000  
J03  40438251.616   212504456.904        -619.033          44.000    40438253.884   165587971.294        -482.259          48.000  
J04  38508893.331   202365812.188           2.742          34.000    38508896.648   157688014.547           3.091          37.000  
J07  39036576.233   205138603.814        -138.297          36.000    39036578.753   159848268.510        -107.175          42.000  
C01  38675869.837   155731733.595         -64.825          49.000    38675872.552   201395749.037         -84.320          47.000  
C03  39386709.847   158593959.7873        -70.256          29.000    39386707.576   205096921.6653        -89.071          33.000  
C04  39151707.324   157647701.8523        -98.560          35.000    39151742.064   203873395.5013       -146.844          29.000  
C07  38168712.572   153689538.6672        220.799          28.000    38168714.306   198754511.5583        294.434          30.000  
C10  39028161.221   157150231.8443        401.530          28.000                                                                  
C19                                                                  25886952.056   134800152.4393       2183.804          22.000  
C20                                                                  25823727.647   134470926.2873       -223.697          29.000  
C35                                                                  23747307.782   123658483.3013        503.730          36.000  
C38                                                                  39704576.964   206752150.9263        917.232          24.000  
C40                                                                  37842095.402   197053726.631         363.813          51.000  
C45                                                                  26463852.482   137804218.946       -3179.461          40.000  
C59                                                                  38960102.464   202875476.667        -117.508          50.000  
> 2023 06 22 01 09 04.0060000  0 36                     
G01  21953327.056   115365526.904       -1461.994          48.000    21953328.225    89895280.765       -1138.538          46.000  
G02  23544378.004   123726540.9683      -1994.792          33.000                                                                  
G03                                                                  23006454.778    94207585.8803       1757.234          31.000  
G08                                                                  24798354.387   101545108.161       -1914.560          36.000  
G14  22678051.953   119173966.7093       1143.323          30.000    22678052.295    92862832.5251        908.109          30.000  
G17                                                                  24866885.728   101825738.9183       1641.911          17.000  
G21  24016343.255   126206735.3643      -2592.754          34.000                                                                  
R04  23631940.219   126547966.0613        702.649          31.000                                                                  
R05  24249931.968   129629783.7333       3393.667          28.000                                                                  
R09  23065609.966   123169070.2533      -3899.121          35.000    23065749.110    95798743.6863      -3053.418          35.000  
R10  21947406.443   116992062.0072       -989.566          41.000                                                                  
R11  24297005.892   129835832.3743       2811.703          28.000                                                                  
R19  23975592.465   128253252.5573      -2581.338          20.000                                                                  
R20  21952660.156   117390738.7003        -97.298          26.000    21952647.559    91303855.4241        -72.450          27.000  
R21  25063647.532   134120640.6663       2222.315          25.000                                                                  
E02  26719643.852   140412723.414       -2658.660          47.000    26719920.013   107590053.638       -2060.730          28.000  
E15                                                                  27199682.065   109521847.4533       1105.026          26.000  
E30  25439499.087   133685470.3571       -140.491          37.000    25439500.693   102434300.5171       -107.920          43.000  
E34  25227517.505   132571501.377        -551.028          52.000    25227521.575   101580785.414        -421.899          53.000  
E36                                                                  27587642.938   111084005.1371      -1745.361          31.000  
J02  38896331.141   204401620.991         320.761          45.000    38896331.820   159273980.774         250.142          46.000  
J03  40438369.435   212505076.215        -618.434          44.000    40438371.665   165588453.849        -482.688          46.000  
J04  38508898.594   202365615.5773          9.102          31.000    38508895.211   157688009.175           7.678          35.000  
J07  39036602.146   205138739.381        -133.075          37.000    39036604.560   159848374.191        -104.145          42.000  
C01  38675885.639   155731797.011         -61.761          45.000    38675888.436   201395830.985         -81.136          45.000  
C03  39386728.460   158594034.2733        -65.038          33.000    39386724.468   205097009.9093        -83.887          28.000  
C04  39151728.934   157647788.5883        -90.543          34.000    39151743.478   203873402.3033       -118.604          30.000  
C07  38168659.163   153689373.9973        216.874          27.000    38168657.542   198754215.8683        277.628          30.000  
C10  39028068.390   157149857.9893        401.969          26.000                                                                  
C19                                                                  25886516.768   134797885.3883       2181.960          24.000  
C20                                                                  25823777.764   134471186.7443       -221.553          28.000  
C35                                                                  23747210.897   123657958.2313        504.803          40.000  
C38                                                                  39704390.572   206751180.2403        911.475          24.000  
C40                                                                  37842025.636   197053363.615         362.323          52.000  
C45                                                                  26464462.320   137807395.585       -3173.499          40.000  
C59                                                                  38960124.611   202875591.821        -113.052          48.000  
> 2023 06 22 01 09 05.0060000  0 36                     
G01  21953605.297   115366989.646       -1464.309          49.000    21953606.617    89896420.566       -1140.824          45.000  
G02  23544741.162   123728449.1383      -1988.303          40.000                                                                  
G03                                                                  23005998.974    94205719.1453       1748.729          32.000  
G08                                                                  24798822.834   101547032.7943      -1916.801          28.000  
G14  22677835.903   119172831.0093       1160.693          39.000    22677835.245    92861943.5433        911.282          28.000  
G17                                                                  24866485.722   101824101.5383       1632.174          17.000  
G21  24016850.377   126209399.6103      -2580.191          26.000                                                                  
R04  23631812.426   126547281.5373        721.747          31.000                                                                  
R05  24249288.476   129626343.3343       3396.099          28.000                                                                  
R09  23066336.992   123172956.0073      -3893.845          38.000    23066484.867    95801798.9823      -3022.998          35.000  
R10  21947577.014   116993008.5721       -989.373          46.000                                                                  
R11  24296484.063   129833040.4703       2805.336          27.000                                                                  
R19  23976076.591   128255842.6083      -2576.304          19.000                                                                  
R20  21952675.820   117390822.2613        -94.294          28.000    21952671.380    91303931.469         -73.053          41.000  
R21  25063231.671   134118414.5383       2210.805          25.000                                                                  
E02  26720149.132   140415380.734       -2655.864          36.000    26720431.220   107592103.5641      -2063.682          32.000  
E15                                                                  27199401.082   109520716.1423       1106.754          26.000  
E30  25439518.964   133685611.191        -141.275          49.000    25439526.790   102434408.325        -107.536          52.000  
E34  25227621.919   132572052.702        -552.943          46.000    25227625.951   101581207.837        -423.764          44.000  
E36                                                                  27588070.668   111085726.8951      -1752.260          25.000  
J02  38896269.779   204401298.933         323.020          46.000    38896270.500   159273729.791         251.949          45.000  
J03  40438487.213   212505695.253        -618.708          44.000    40438489.520   165588936.267        -482.378          47.000  
J04  38508890.391   202365584.8473         14.941          37.000    38508892.861   157687478.8881         10.357          36.000  
J07  39036627.394   205138870.640        -129.390          39.000    39036629.455   159848476.464        -100.884          41.000  
C01  38675900.678   155731857.412         -59.662          46.000    38675903.489   201395909.133         -76.527          44.000  
C03  39386744.795   158594099.9303        -64.686          30.000    39386741.594   205097099.5593        -96.289          28.000  
C04  39151750.778   157647876.2223        -93.652          31.000    39151749.821   203873435.2523       -103.711          33.000  
C07  38168603.912   153689150.8823        215.266          32.000    38168603.377   198753933.3133        280.072          29.000  
C10  39027975.237   157149482.9563        402.615          25.000                                                                  
C19                                                                  25886077.915   134795600.6443       2196.222          26.000  
C20                                                                  25823832.410   134471471.7023       -229.741          28.000  
C35                                                                  23747116.625   123657467.7183        512.451          40.000  
C38                                                                  39704202.940   206750203.2813        916.347          23.000  
C40                                                                  37841956.092   197053002.243         360.354          49.000  
C45                                                                  26465071.138   137810566.697       -3169.113          40.000  
C59                                                                  38960146.185   202875702.906        -109.599          50.000  
> 2023 06 22 01 09 06.0060000  0 34                     
G01  21953884.050   115368454.691       -1466.158          49.000    21953885.491    89897562.125       -1142.202          47.000  
G02  23545118.705   123730433.8613      -2006.592          36.000                                                                  
G03  23005529.668   120894911.2793       2278.685          44.000    23005533.795    94203844.2231       1776.549          40.000  
G08                                                                  24799297.399   101548976.0753      -1920.201          27.000  
G14  22677617.738   119171685.2763       1167.467          26.000    22677620.888    92861065.6543        902.634          29.000  
G17                                                                  24866085.498   101822462.1913       1658.409          15.000  
G21  24017311.242   126211822.0603      -2606.851          28.000                                                                  
R05  24248635.639   129622853.5623       3413.352          28.000                                                                  
R09  23067064.403   123176836.2833      -3914.326          30.000    23067218.437    95804845.9443      -3040.332          34.000  
R10  21947762.183   116993998.207        -988.566          42.000                                                                  
R19  23976562.896   128258443.7403      -2603.902          20.000                                                                  
R20  21952690.378   117390912.0712        -93.510          26.000    21952691.330    91304003.367         -70.152          40.000  
R21  25062820.252   134116213.3763       2215.653          26.000                                                                  
E02  26720655.672   140418018.1451      -2653.087          44.000    26720942.577   107594168.213       -2065.919          28.000  
E15  27199100.520   142932237.9013       1458.588          32.000    27199118.938   109519580.6543       1125.827          31.000  
E30  25439551.869   133685751.567        -139.141          48.000    25439553.180   102434516.064        -108.870          52.000  
E34  25227727.340   132572605.331        -553.898          41.000    25227732.399   101581631.479        -423.928          47.000  
E36                                                                  27588505.773   111087474.5531      -1750.557          28.000  
J02  38896208.003   204400974.805         324.850          47.000    38896208.843   159273477.212         252.557          45.000  
J03  40438605.007   212506314.365        -618.928          45.000    40438607.276   165589418.707        -482.802          47.000  
J04  38508890.924   202365577.3572         15.139          37.000    38508891.817   157687467.7901         13.578          41.000  
J07  39036651.893   205138998.638        -125.929          38.000    39036653.844   159848576.160         -97.862          43.000  
C01  38675915.157   155731915.633         -57.104          48.000    38675917.988   201395984.430         -73.937          47.000  
C03  39386760.181   158594161.7573        -61.971          33.000    39386757.677   205097182.9991        -76.481          31.000  
C04                                                                  39151771.816   203873549.7113        -97.009          32.000  
C07  38168552.827   153688945.1463        221.260          31.000    38168549.287   198753652.0773        275.712          33.000  
C10  39027883.171   157149112.8093        395.272          25.000                                                                  
C19                                                                  25885643.592   134793338.0643       2201.920          26.000  
C20                                                                  25823877.114   134471704.0063       -218.564          27.000  
C35                                                                  23747030.727   123657020.1393        519.531          33.000  
C38                                                                  39704021.166   206749256.5883        916.426          29.000  
C40                                                                  37841887.089   197052642.096         358.901          38.000  
C45                                                                  26465679.037   137813733.554       -3165.130          41.000  
C59                                                                  38960167.135   202875810.937        -106.571          49.000  
> 2023 06 22 01 09 07.0060000  0 33                     
G01  21954163.141   115369921.841       -1469.185          48.000    21954164.698    89898705.366       -1144.032          46.000  
G02  23545543.885   123732668.1353      -1972.322          36.000                                                                  
G03  23005096.169   120892630.0841       2281.713          48.000    23005093.951    94202067.110        1777.876          43.000  
G08                                                                  24799772.237   101550920.4603      -1926.035          26.000  
G14                                                                  22677395.185    92860141.8153        902.006          26.000  
G17                                                                  24865683.036   101820815.0263       1627.159          13.000  
G21  24017833.012   126214564.0703      -2572.021          37.000                                                                  
R05  24247989.876   129619401.6303       3403.242          29.000    24248024.423   100815233.8603       2631.370          25.000  
R09  23067808.831   123180812.1413      -3894.866          36.000                                                                  
R10  21947944.890   116994988.362        -991.111          43.000                                                                  
R19  23977047.946   128261038.5913      -2601.673          20.000                                                                  
R20  21952706.225   117390985.6613        -92.011          26.000    21952710.963    91304074.311         -68.982          34.000  
E02  26721156.925   140420669.620       -2648.381          40.000    26721457.537   107596235.646       -2069.088          29.000  
E15  27198818.115   142930753.8161       1464.429          28.000    27198848.680   109518492.4813       1096.781          26.000  
E30  25439576.680   133685892.027        -140.891          49.000    25439581.763   102434623.640        -108.602          52.000  
E34  25227833.686   132573159.285        -554.649          45.000    25227839.898   101582055.998        -424.776          44.000  
E36                                                                  27588936.392   111089213.4833      -1752.471          27.000  
J02  38896145.972   204400648.467         327.191          46.000    38896146.810   159273222.963         254.846          46.000  
J03  40438722.905   212506933.303        -619.537          48.000    40438725.038   165589901.003        -482.621          47.000  
J04  38508884.447   202365578.0543         18.997          37.000    38508888.941   157687452.678          18.237          35.000  
J07  39036675.639   205139123.389        -123.258          39.000    39036677.553   159848673.385         -96.443          42.000  
C01  38675929.034   155731971.579         -55.054          47.000    38675931.749   201396056.802         -71.112          47.000  
C03                                                                  39386773.608   205097266.3543        -71.436          27.000  
C04  39151741.683   157647839.5933        -77.953          44.000    39151751.204   203873651.0632       -101.792          46.000  
C07  38168498.263   153688725.9163        212.487          37.000    38168495.528   198753372.0063        275.186          36.000  
C10  39027789.663   157148736.4153        396.148          26.000                                                                  
C19                                                                  25885202.924   134791043.9273       2203.418          32.000  
C20                                                                  25823925.936   134471958.0753       -263.539          25.000  
C35                                                                  23746941.988   123656558.5693        518.750          44.000  
C38                                                                  39703837.855   206748302.4573        905.241          28.000  
C40                                                                  37841818.802   197052280.2333        355.980          41.000  
C45                                                                  26466286.290   137816896.209       -3161.126          41.000  
C59                                                                  38960187.279   202875915.885        -103.658          48.000  
> 2023 06 22 01 09 08.0060000  0 33                     
G01  21954442.631   115371391.184       -1470.336          50.000    21954444.244    89899850.328       -1145.484          46.000  
G02  23545890.502   123734488.7623      -2015.361          38.000                                                                  
G03  23004658.318   120890347.476        2283.851          46.000    23004663.961    94200288.464        1779.504          43.000  
G08                                                                  24800246.735   101552863.7473      -1930.959          24.000  
G14  22677138.517   119169165.7781       1156.366          33.000    22677146.867    92859176.2631        902.985          38.000  
G17                                                                  24865280.902   101819168.2123       1645.264          14.000  
R04  23631416.606   126545162.4333        691.500          35.000    23631465.621    98424219.4863        540.646          31.000  
R05  24247346.850   129615964.3643       3365.349          29.000                                                                  
R09  23068533.587   123184689.3043      -3882.675          36.000    23068562.599    95810428.3903      -3042.041          33.000  
R10  21948131.859   116995978.273        -989.653          46.000                                                                  
R19  23977534.554   128263641.7373      -2615.464          20.000                                                                  
R20  21952723.584   117391077.6183        -91.992          32.000    21952725.798    91304188.2263        -69.073          33.000  
E02  26721661.249   140423317.924       -2647.278          42.000    26721972.603   107598305.903       -2071.861          30.000  
E15  27198533.729   142929269.143        1457.879          43.000    27198579.547   109517408.7513       1092.503          27.000  
E30  25439603.228   133686032.782        -140.788          48.000    25439607.691   102434731.326        -107.066          49.000  
E34  25227939.595   132573717.6061       -558.077          39.000    25227945.906   101582481.420        -425.375          48.000  
E36                                                                  27589364.343   111090936.6821      -1754.680          28.000  
J02  38896083.473   204400320.274         328.623          47.000    38896084.385   159272967.176         256.240          46.000  
J03  40438840.940   212507552.545        -619.236          49.000    40438842.960   165590383.447        -482.781          44.000  
J04  38508873.940   202365523.9151         25.853          39.000    38508879.916   157687434.751          18.280          40.000  
J07  39036698.784   205139245.098        -119.946          37.000    39036700.668   159848768.269         -93.929          43.000  
C01  38675942.375   155732025.262         -52.411          47.000    38675945.035   201396126.264         -68.289          47.000  
C03  39386796.563   158594308.7873        -93.422          32.000    39386788.695   205097344.2213        -79.297          32.000  
C04  39151759.438   157647910.6041        -77.656          40.000    39151767.757   203873528.6863        -98.882          41.000  
C07  38168441.560   153688497.5683        226.783          32.000    38168441.148   198753088.1913        283.203          35.000  
C10  39027695.898   157148358.3103        380.466          27.000    39027712.071   203227538.0613        516.724          26.000  
C19                                                                  25884780.956   134788846.2983       2192.964          31.000  
C20                                                                  25823970.195   134472188.9023       -245.357          25.000  
C35                                                                  23746844.959   123656053.1233        521.612          47.000  
C38                                                                  39703665.199   206747403.5003        902.517          29.000  
C40                                                                  37841750.552   197051922.5972        357.462          37.000  
C45                                                                  26466893.042   137820054.927       -3157.063          44.000  
C59                                                                  38960206.930   202876017.824        -100.730          50.000  
> 2023 06 22 01 09 09.0060000  0 34                     
G01  21954722.413   115372862.396       -1471.550          47.000    21954724.241    89900996.712       -1146.802          46.000  
G02  23546257.638   123736418.4773      -2013.198          33.000                                                                  
G03  23004223.915   120888063.515        2284.350          46.000    23004227.924    94198508.729        1780.457          44.000  
G08                                                                  24800719.923   101554801.1103      -1892.398          23.000  
G14  22676910.219   119168008.605        1156.091          48.000    22676909.045    92858274.616         900.702          48.000  
G17                                                                  24864876.036   101817509.8143       1646.457          18.000  
R04  23631263.703   126544343.2043        690.625          37.000                                                                  
R05  24246658.087   129612283.0903       3398.109          44.000    24246724.314   100809818.8663       2643.402          39.000  
R09  23069255.471   123188546.2883      -3882.497          36.000    23069356.030    95813723.7023      -3034.033          32.000  
R10  21948317.765   116996969.257        -991.836          47.000                                                                  
R19  23978020.814   128266242.6963      -2577.441          20.000                                                                  
R20                                                                  21952742.786    91304251.3213        -68.861          34.000  
R21  25061582.500   134109589.8903       2213.942          26.000                                                                  
E02  26722150.268   140425964.119       -2645.565          39.000    26722488.043   107600378.321       -2073.057          29.000  
E15  27198252.029   142927810.469        1457.612          38.000                                                                  
E30  25439630.529   133686174.048        -141.556          48.000    25439634.231   102434839.700        -110.018          50.000  
E34  25228044.750   132574301.3821       -556.145          45.000    25228051.027   101582908.016        -428.782          37.000  
E36                                                                  27589799.177   111092694.0151      -1753.735          36.000  
J02  38896020.853   204399990.610         329.976          46.000    38896021.612   159272710.297         257.615          45.000  
J03  40438959.220   212508171.806        -619.483          50.000    40438960.706   165590866.106        -483.020          45.000  
J04  38508868.863   202365498.165          26.875          38.000    38508875.965   157687414.665          21.614          41.000  
J07  39036721.517   205139364.781        -119.534          36.000    39036723.376   159848861.517         -92.345          42.000  
C01  38675955.246   155732077.246         -51.300          48.000    38675958.020   201396193.474         -67.157          48.000  
C03  39386810.111   158594362.7823        -56.563          31.000    39386804.075   205097424.8543        -94.629          29.000  
C04  39151777.571   157647987.098         -75.553          43.000    39151785.198   203873626.5291        -97.192          45.000  
C07  38168378.357   153688242.5113        212.524          36.000    38168387.815   198752811.2233        286.244          39.000  
C10  39027597.394   157147962.2083        396.318          26.000                                                                  
C19                                                                  25884278.262   134786459.5953       2196.734          44.000  
C20                                                                  25824011.934   134472406.4003       -218.745          26.000  
C35                                                                  23746743.706   123655530.3621        522.498          45.000  
C38                                                                  39703494.416   206746513.4633        899.135          22.000  
C40                                                                  37841688.015   197051591.9823        356.889          42.000  
C45                                                                  26467499.446   137823210.899       -3155.120          44.000  
C59                                                                  38960225.661   202876117.450         -98.466          48.000  
> 2023 06 22 01 09 10.0060000  0 33                     
G01  21955002.331   115374333.976       -1471.963          48.000    21955004.319    89902143.395       -1146.574          47.000  
G03  23003789.147   120885778.702        2284.462          45.000    23003792.180    94196728.419        1780.094          44.000  
G08                                                                  24801183.372   101556699.5123      -1894.801          25.000  
G14  22676690.057   119166852.650        1155.627          47.000    22676688.708    92857373.898         900.317          46.000  
G17                                                                  24864473.159   101815860.0383       1617.191          19.000  
R04  23631127.319   126543613.3093        697.607          35.000    23631187.224    98423059.2423        568.516          30.000  
R05  24245969.678   129608602.4283       3398.780          45.000    24246020.622   100806903.2263       2644.219          38.000  
R09  23069978.497   123192397.7953      -3881.612          38.000                                                                  
R10  21948504.013   116997961.461        -993.257          44.000                                                                  
R19  23978506.551   128268840.6083      -2602.621          20.000                                                                  
R20                                                                  21952765.959    91304348.1373        -69.513          29.000  
R21  25061164.206   134107351.3453       2201.772          26.000                                                                  
E02  26722674.222   140428609.109       -2645.946          45.000    26723003.139   107602459.3703      -2081.495          26.000  
E15  27197995.790   142926433.0153       1461.157          27.000    27197990.198   109515028.4511       1092.210          35.000  
E30  25439657.445   133686315.945        -142.880          47.000    25439661.141   102434948.357        -109.635          50.000  
E34  25228162.055   132574886.7243       -541.918          36.000    25228157.018   101583333.6133       -426.959          34.000  
E36  27590249.290   144987738.3103      -2256.504          25.000    27590234.535   111094436.3341      -1755.069          33.000  
J02  38895958.021   204399660.153         330.636          45.000    38895958.539   159272452.807         257.492          45.000  
J03  40439077.201   212508790.821        -619.222          48.000    40439078.469   165591348.456        -482.750          47.000  
J04  38508866.873   202365470.917          25.696          36.000    38508870.451   157687393.476          19.929          40.000  
J07  39036744.039   205139483.654        -118.852          36.000    39036746.000   159848954.155         -92.817          43.000  
C01  38675967.883   155732128.251         -51.013          45.000    38675970.895   201396259.382         -66.967          48.000  
C03  39386825.118   158594423.5853        -67.090          32.000    39386822.638   205097521.8053        -77.246          29.000  
C04  39151796.847   157648062.001         -74.725          45.000    39151802.105   203873723.413         -96.153          44.000  
C07  38168312.765   153688011.9523        211.611          46.000    38168319.424   198752455.0803        273.663          46.000  
C10  39027493.681   157147550.1683        403.760          37.000                                                                  
C19                                                                  25883854.616   134784022.8931       2193.958          40.000  
C20                                                                  25824067.608   134472695.9393       -234.709          27.000  
C35                                                                  23746642.142   123655008.237         521.688          44.000  
C38                                                                  39703318.701   206745598.4593        896.864          23.000  
C40                                                                  37841620.892   197051249.4871        356.982          43.000  
C45                                                                  26468105.668   137826366.144       -3155.916          44.000  
C59                                                                  38960244.431   202876215.983         -98.811          48.000  
> 2023 06 22 01 09 11.0060000  0 33                     
G01  21955282.407   115375806.124       -1472.784          47.000    21955284.505    89903290.538       -1147.519          44.000  
G02  23547041.749   123740539.0033      -2005.762          36.000                                                                  
G03  23003354.532   120883495.068        2283.041          42.000    23003356.840    94194948.990        1779.179          43.000  
G08                                                                  24801624.912   101558506.7621      -1916.567          38.000  
G14  22676469.875   119165698.114        1154.181          47.000    22676469.653    92856474.287         898.511          46.000  
G17                                                                  24864069.274   101814206.3663       1648.961          20.000  
G21  24019781.358   126224802.7713      -2622.058          37.000                                                                  
R04  23631005.489   126542961.2653        729.150          32.000    23631040.629    98422461.0143        533.093          31.000  
R05  24245287.595   129605115.2692       3398.500          45.000    24245327.763   100804260.1772       2643.129          38.000  
R09  23070703.935   123196283.5843      -3883.829          39.000    23070846.939    95819916.2143      -3018.701          34.000  
R10  21948690.348   116998955.623        -994.509          40.000                                                                  
R19  23978994.763   128271452.4403      -2601.607          20.000                                                                  
E02  26723174.470   140431255.240       -2647.022          43.000                                                                  
E15  27197730.695   142925038.5721       1424.022          34.000                                                                  
E30  25439684.256   133686459.056        -144.030          47.000    25439688.306   102435058.072        -110.753          48.000  
E34  25228256.987   132575390.2721       -557.813          45.000    25228261.236   101583759.2411       -427.543          48.000  
E36  27590679.361   144989998.7703      -2293.289          31.000    27590668.540   111096188.8321      -1757.147          27.000  
J02  38895895.329   204399330.688         328.323          45.000    38895895.773   159272196.050         256.658          45.000  
J03  40439195.338   212509410.362        -620.188          48.000    40439196.214   165591831.185        -482.935          46.000  
J04  38508861.872   202365444.810          23.928          38.000    38508866.142   157687373.038          21.268          39.000  
J07  39036766.954   205139603.740        -120.946          37.000    39036768.871   159849047.723         -93.923          42.000  
C01  38675980.774   155732179.965         -52.985          48.000    38675983.942   201396326.227         -68.235          48.000  
C03  39386836.220   158594467.8333        -69.971          28.000    39386840.317   205097613.0933       -152.881          28.000  
C04  39151815.755   157648137.388         -75.613          47.000    39151820.885   203873820.926         -97.821          42.000  
C07  38168261.200   153687801.0602        211.217          50.000    38168267.201   198752182.4362        271.475          49.000  
C10  39027393.499   157147140.9373        394.092          43.000    39027398.802   203225908.6212        516.060          42.000  
C19                                                                  25883431.601   134781827.131        2195.379          41.000  
C20                                                                  25824113.371   134472934.1263       -194.165          27.000  
C35                                                                  23746543.145   123654481.3503        511.641          35.000  
C38                                                                  39703140.715   206744671.6653        900.168          22.000  
C40                                                                  37841551.338   197050892.565         355.867          42.000  
C45                                                                  26468712.191   137829522.755       -3157.372          45.000  
C59                                                                  38960263.409   202876315.492         -99.844          49.000  
> 2023 06 22 01 09 12.0060000  0 35                     
G01  21955562.530   115377278.482       -1472.439          45.000    21955564.687    89904437.794       -1147.604          46.000  
G02  23547422.701   123742540.3193      -2015.616          40.000                                                                  
G03  23002920.171   120881212.725        2282.403          43.000    23002924.437    94193170.528        1777.931          44.000  
G08  24802032.210   130335558.2243      -2458.307          41.000    24802037.919   101560421.880       -1916.461          37.000  
G14  22676249.937   119164544.309        1153.632          48.000    22676249.218    92855575.203         898.273          45.000  
G17                                                                  24863667.805   101812562.6263       1635.259          20.000  
G21  24020260.195   126227425.6372      -2624.457          41.000                                                                  
R04  23630867.185   126542220.6713        717.395          24.000    23630916.614    98421932.3383        537.050          30.000  
R05  24244647.557   129601717.6212       3397.332          47.000    24244674.703   100801326.0653       2642.278          40.000  
R09  23071430.508   123200168.8512      -3885.191          42.000    23071500.771    95822900.8523      -3022.028          37.000  
R10  21948878.637   116999873.7113       -999.121          30.000                                                                  
R19  23979484.226   128274070.4083      -2611.150          20.000                                                                  
R20                                                                  21952804.071    91304506.5513        -84.722          25.000  
R21  25060338.071   134102930.1693       2207.844          26.000                                                                  
E02  26723675.578   140433902.502       -2647.342          42.000                                                                  
E15  27197459.919   142923616.1851       1424.670          33.000    27197466.589   109512925.1691       1089.291          40.000  
E30  25439711.673   133686602.989        -144.867          43.000    25439715.899   102435168.280        -110.338          46.000  
