     3.02           OBSERVATION DATA    M: Mixed            RINEX VERSION / TYPE
RTKCONV 2.4.3 b33                       20211015 045130 UTC PGM / RUN BY / DATE 
log: C:\Users\Taro\Dropbox\github\gnss-visibility\LOG0011.  COMMENT             
format: u-blox                                              COMMENT             
                                                            MARKER NAME         
                                                            MARKER NUMBER       
                                                            MARKER TYPE         
                                                            OBSERVER / AGENCY   
                                                            REC # / TYPE / VERS 
                                                            ANT # / TYPE        
 -3961834.7597  3348984.6847  3698304.9852                  APPROX POSITION XYZ 
        0.0000        0.0000        0.0000                  ANTENNA: DELTA H/E/N
G    8 C1C L1C D1C S1C C2L L2L D2L S2L                      SYS / # / OBS TYPES 
R    8 C1C L1C D1C S1C C2C L2C D2C S2C                      SYS / # / OBS TYPES 
E    8 C1C L1C D1C S1C C7Q L7Q D7Q S7Q                      SYS / # / OBS TYPES 
J    8 C1C L1C D1C S1C C2L L2L D2L S2L                      SYS / # / OBS TYPES 
C    8 C1I L1I D1I S1I C7I L7I D7I S7I                      SYS / # / OBS TYPES 
  2021    10    15     4    43   55.0010000     GPS         TIME OF FIRST OBS   
  2021    10    15     4    49   50.0010000     GPS         TIME OF LAST OBS    
G                                                           SYS / PHASE SHIFT   
R                                                           SYS / PHASE SHIFT   
E                                                           SYS / PHASE SHIFT   
J                                                           SYS / PHASE SHIFT   
C                                                           SYS / PHASE SHIFT   
  0                                                         GLONASS SLOT / FRQ #
 C1C    0.000 C1P    0.000 C2C    0.000 C2P    0.000        GLONASS COD/PHS/BIS 
                                                            END OF HEADER       
> 2021 10 15  4 43 55.0010000  0 22                     
G28  23974091.067   125984698.023        -649.716          36.000                                                                  
G13  21486099.082   112910210.9061      -3226.872          48.000                                                                  
G14  24321982.250   127812878.9831      -1330.619          45.000    24321978.651    99594430.8381      -1037.051          39.000  
G15  20540134.116   107939132.088       -1448.298          50.000    20540129.842    84108397.330       -1128.653          43.000  
J 7  37553514.580   197345050.2281      -1383.666          40.000    37553512.938   153775362.034       -1078.302          46.000  
C 3  38087310.904   198330622.457       -1419.514          43.000    38087304.223   153361790.0891      -1097.771          49.000  
C 8  36525063.414   190195588.5931      -1805.494          46.000    36525055.911   147071263.961       -1396.141          52.000  
C13  36467307.948   189894841.872       -1464.988          50.000    36467305.609   146838726.5331      -1132.755          47.000  
C16  37786774.313   196765648.2921      -1214.186          45.000    37786773.937   152151678.8651       -938.864          48.000  
C24  25668825.763   133664313.746       -3813.792          43.000                                                                  
C 6  37805625.174   196863808.890       -1086.773          36.000    37805615.636   152227548.8811       -840.994          40.000  
R10  20889889.857   111354865.9471      -2602.887          48.000                                                                  
R 1  20633438.014   110297548.403         -52.670          39.000    20633438.475    85786987.3982        -40.861          36.000  
R 8  20923581.080   112044824.674       -2387.557          49.000    20923579.646    87145969.3151      -1856.977          47.000  
G18  21929773.947   115241747.4161       -886.622          43.000    21929772.780    89798755.167        -690.931          40.000  
G24  21258945.700   111716511.2811       1205.835          47.000    21258945.832    87051828.9201        939.526          48.000  
E33  25634496.374   134710187.796       -3691.219          45.000                                                                  
C32  24729439.756   128772685.4131        863.329          35.000                                                                  
E 7  27400565.841   143990943.309       -3203.756          42.000                                                                  
E20  24469938.540   128590405.243       -1068.441          34.000                                                                  
G23  23415561.625   123049606.254        1711.541          41.000    23415561.705    95882810.2151       1333.883          37.000  
J 1  39169921.376   205839321.5981      -1203.186          46.000    39169919.624   160394272.594        -937.311          45.000  
> 2021 10 15  4 43 56.0010000  0 22                     
G28  23974214.810   125985348.286        -650.857          36.000                                                                  
G13  21486713.199   112913438.174       -3227.854          48.000                                                                  
G14  24322235.676   127814210.619       -1332.435          45.000    24322232.192    99595468.470       -1038.274          39.000  
G15  20540409.869   107940581.008       -1449.623          50.000    20540405.561    84109526.365       -1129.590          43.000  
J 7  37553778.007   197346434.360       -1384.493          40.000    37553776.161   153776440.572       -1078.879          46.000  
C 3  38087583.515   198332042.510       -1420.647          43.000    38087576.856   153362888.164       -1098.290          49.000  
C 8  36525410.105   190197394.565       -1806.642          46.000    36525402.706   147072660.455       -1396.908          52.000  
C13  36467589.481   189896307.429       -1466.183          50.000    36467587.036   146839859.800       -1133.733          47.000  
C16  37787007.587   196766863.079       -1215.426          45.000    37787007.179   152152618.214        -939.689          48.000  
C24  25669558.294   133668128.138       -3814.969          43.000                                                                  
C 6  37805833.985   196864896.640       -1088.282          36.000    37805824.493   152228389.969        -841.535          40.000  
R10  20890378.305   111357469.840       -2604.906          48.000                                                                  
R 1  20633448.138   110297601.690         -53.665          39.000    20633450.496    85787028.8482        -41.712          36.000  
R 8  20924027.090   112047212.812       -2388.705          49.000    20924025.729    87147826.753       -1857.795          47.000  
G18  21929942.564   115242634.973        -888.433          43.000    21929941.784    89799446.762        -692.028          40.000  
G24  21258716.501   111715306.182        1204.382          47.000    21258716.580    87050889.879         938.635          48.000  
E33  25635198.956   134713879.665       -3692.334          45.000                                                                  
C32  24729273.950   128771822.778         862.220          34.000                                                                  
E 7  27401175.580   143994147.512       -3204.597          42.000                                                                  
E20  24470141.676   128591474.408       -1069.885          34.000                                                                  
G23  23415235.990   123047895.494        1710.224          41.000    23415236.218    95881477.170        1332.663          37.000  
J 1  39170150.588   205840525.118       -1203.906          46.000    39170148.631   160395210.409        -938.153          45.000  
> 2021 10 15  4 43 57.0010000  0 22                     
G28  23974338.850   125985999.735        -652.015          36.000                                                                  
G13  21487327.543   112916666.321       -3228.635          48.000                                                                  
G14  24322489.292   127815543.491       -1333.621          45.000    24322485.916    99596507.076       -1039.422          39.000  
G15  20540685.792   107942030.935       -1450.511          50.000    20540681.482    84110656.176       -1130.213          43.000  
J 7  37554041.488   197347819.176       -1385.128          40.000    37554039.547   153777519.655       -1079.323          46.000  
C 3  38087856.486   198333463.243       -1420.985          43.000    38087849.750   153363986.775       -1098.851          48.000  
C 8  36525757.060   190199201.390       -1807.323          46.000    36525749.652   147074057.612       -1397.554          52.000  
C13  36467871.191   189897773.849       -1466.975          50.000    36467868.627   146840993.722       -1134.350          47.000  
C16  37787240.929   196768078.599       -1215.712          45.000    37787240.685   152153558.131        -940.233          48.000  
C24  25670290.811   133671943.554       -3815.960          42.000                                                                  
C 6  37806043.169   196865985.110       -1088.823          36.000    37806033.485   152229231.648        -842.094          40.000  
R10  20890867.042   111360075.283       -2606.301          48.000                                                                  
R 1  20633458.293   110297655.848         -54.842          38.000    20633460.174    85787070.9462        -42.385          37.000  
R 8  20924473.124   112049601.918       -2389.552          49.000    20924471.852    87149684.951       -1858.583          47.000  
G18  21930111.562   115243523.862        -889.578          43.000    21930111.004    89800139.421        -693.460          41.000  
G24  21258487.384   111714102.260        1203.375          47.000    21258487.556    87049951.760         937.726          48.000  
E33  25635901.595   134717572.527       -3693.370          45.000                                                                  
C32  24729108.284   128770960.820         861.505          34.000                                                                  
E 7  27401785.395   143997352.407       -3205.172          42.000                                                                  
E20  24470345.127   128592544.319       -1069.761          34.000                                                                  
G23  23414910.512   123046185.501        1709.611          41.000    23414910.826    95880144.703        1332.234          37.000  
J 1  39170379.740   205841729.242       -1204.382          46.000    39170377.735   160396148.690        -938.550          45.000  
> 2021 10 15  4 43 58.0010000  0 22                     
G28  23974463.009   125986652.331        -653.593          36.000                                                                  
G13  21487942.111   112919895.321       -3229.720          48.000                                                                  
G14  24322743.181   127816877.588       -1334.880          45.000    24322740.006    99597546.616       -1040.304          39.000  
G15  20540961.837   107943481.835       -1451.581          50.000    20540957.668    84111786.750       -1131.158          43.000  
J 7  37554305.211   197349204.656       -1385.870          40.000    37554303.111   153778599.248       -1080.011          46.000  
C 3  38088129.378   198334884.653       -1422.070          43.000    38088122.743   153365085.890       -1099.511          49.000  
C 8  36526104.223   190201009.100       -1808.479          46.000    36526096.905   147075455.440       -1398.307          52.000  
C13  36468152.955   189899241.093       -1467.929          50.000    36468150.443   146842128.295       -1135.144          47.000  
C16  37787474.491   196769294.821       -1216.793          45.000    37787474.270   152154498.593        -940.967          48.000  
C24  25671023.582   133675759.967       -3817.356          42.000                                                                  
C 6  37806252.351   196867074.289       -1089.770          36.000    37806242.596   152230073.878        -842.815          40.000  
R10  20891356.030   111362682.285       -2607.987          48.000                                                                  
R 1  20633468.801   110297710.814         -56.121          38.000    20633470.433    85787113.7122        -43.175          37.000  
R 8  20924919.505   112051991.965       -2390.757          49.000    20924918.198    87151543.878       -1859.470          47.000  
G18  21930280.772   115244414.095        -891.220          43.000    21930280.661    89800833.118        -694.557          40.000  
G24  21258258.504   111712899.489        1201.990          47.000    21258258.624    87049014.543         936.572          48.000  
E33  25636604.625   134721266.336       -3694.492          45.000                                                                  
C32  24728942.879   128770099.619         860.135          34.000                                                                  
E 7  27402395.392   144000557.982       -3206.194          42.000                                                                  
E20  24470548.645   128593615.017       -1071.421          34.000                                                                  
G23  23414585.261   123044476.280        1708.648          41.000    23414585.657    95878812.856        1331.186          37.000  
J 1  39170609.028   205842933.944       -1205.194          46.000    39170607.097   160397087.416        -939.197          45.000  
> 2021 10 15  4 43 59.0010000  0 22                     
G28  23974587.508   125987306.140        -654.231          35.000                                                                  
G13  21488556.710   112923125.244       -3230.229          48.000                                                                  
G14  24322997.273   127818213.002       -1335.810          44.000    24322994.183    99598587.190       -1040.374          40.000  
G15  20541238.151   107944933.790       -1452.310          49.000    20541234.074    84112918.143       -1131.722          44.000  
J 7  37554569.035   197350590.897       -1386.371          40.000    37554566.784   153779679.430       -1080.354          46.000  
C 3  38088402.471   198336306.786       -1422.158          43.000    38088395.794   153366185.589       -1099.922          48.000  
C 8  36526451.633   190202817.719       -1808.838          46.000    36526444.212   147076853.983       -1398.721          52.000  
C13  36468434.943   189900709.279       -1468.423          50.000    36468432.398   146843263.585       -1135.485          47.000  
C16  37787708.271   196770511.843       -1217.219          45.000    37787707.961   152155439.667        -941.263          48.000  
C24  25671756.746   133679577.435       -3817.796          42.000                                                                  
C 6  37806461.635   196868164.281       -1090.250          36.000    37806451.880   152230916.703        -842.891          40.000  
R10  20891845.285   111365290.931       -2609.323          48.000                                                                  
R 1  20633479.539   110297766.689         -56.235          38.000    20633480.858    85787157.196         -44.027          37.000  
R 8  20925365.981   112054383.014       -2391.464          49.000    20925364.726    87153403.570       -1859.864          47.000  
G18  21930450.257   115245305.729        -892.024          43.000    21930450.420    89801527.895        -695.193          40.000  
G24  21258029.827   111711697.947        1201.160          46.000    21258029.971    87048078.274         935.980          48.000  
E33  25637307.698   134724961.180       -3695.085          45.000                                                                  
C32  24728777.569   128769239.138         860.286          34.000                                                                  
E 7  27403005.608   144003764.296       -3206.328          43.000                                                                  
E20  24470752.271   128594686.534       -1071.693          34.000                                                                  
G23  23414260.221   123042767.901        1708.170          41.000    23414260.481    95877481.647        1330.840          37.000  
J 1  39170838.445   205844139.305       -1205.634          46.000    39170836.403   160398026.664        -939.368          45.000  
> 2021 10 15  4 44  0.0010000  0 22                     
G28  23974712.105   125987960.946        -655.343          35.000                                                                  
G13  21489171.523   112926355.857       -3231.274          48.000                                                                  
G14  24323251.592   127819549.487       -1337.097          44.000    24323248.591    99599628.616       -1041.696          39.000  
G15  20541514.598   107946386.565       -1453.406          49.000    20541510.537    84114050.173       -1132.562          44.000  
J 7  37554832.891   197351977.621       -1387.332          40.000    37554830.699   153780759.994       -1080.855          46.000  
C 3  38088675.723   198337729.438       -1423.142          43.000    38088668.955   153367285.664       -1100.438          48.000  
C 8  36526799.023   190204627.035       -1809.856          46.000    36526791.655   147078253.062       -1399.431          52.000  
C13  36468716.899   189902178.135       -1469.429          50.000    36468714.498   146844399.404       -1136.365          47.000  
C16  37787942.129   196771729.407       -1218.052          45.000    37787941.737   152156381.161        -941.841          48.000  
C24  25672490.045   133683395.755       -3818.882          42.000                                                                  
C 6  37806671.059   196869254.846       -1091.433          36.000    37806661.244   152231759.992        -843.927          40.000  
R10  20892334.850   111367900.966       -2610.965          48.000                                                                  
R 1  20633490.343   110297823.282         -56.907          37.000    20633491.511    85787201.207         -44.521          37.000  
R 8  20925812.638   112056774.776       -2392.374          49.000    20925811.343    87155263.833       -1860.517          47.000  
G18  21930619.999   115246198.559        -893.742          43.000    21930620.368    89802223.586        -696.343          40.000  
G24  21257801.437   111710497.402        1199.762          46.000    21257801.583    87047142.780         934.991          48.000  
E33  25638010.724   134728656.820       -3696.146          45.000                                                                  
C32  24728612.417   128768379.173         859.392          34.000                                                                  
E 7  27403616.148   144006971.130       -3207.310          43.000                                                                  
E20  24470956.241   128595758.666       -1072.000          34.000                                                                  
G23  23413935.183   123041060.105        1707.457          41.000    23413935.471    95876150.900        1330.674          37.000  
J 1  39171067.925   205845345.077       -1206.287          46.000    39171065.805   160398966.226        -939.880          45.000  
> 2021 10 15  4 44  1.0010000  0 22                     
G28  23974836.941   125988616.820        -656.511          35.000                                                                  
G13  21489786.454   112929587.250       -3231.728          48.000                                                                  
G14  24323506.153   127820887.162       -1338.210          44.000    24323503.191    99600670.954       -1042.618          39.000  
G15  20541791.298   107947840.268       -1454.105          49.000    20541787.257    84115182.924       -1132.915          44.000  
J 7  37555096.844   197353364.967       -1387.497          40.000    37555094.721   153781841.048       -1081.313          46.000  
C 3  38088949.067   198339152.702       -1423.469          43.000    38088942.244   153368386.226       -1100.726          48.000  
C 8  36527146.704   190206437.169       -1810.621          46.000    36527139.391   147079652.765       -1399.858          52.000  
C13  36468999.247   189903647.781       -1470.112          50.000    36468996.663   146845535.816       -1136.660          47.000  
C16  37788176.099   196772947.636       -1218.541          45.000    37788175.732   152157323.178        -942.200          48.000  
C24  25673223.488   133687215.031       -3819.779          43.000                                                                  
C 6  37806880.652   196870346.040       -1091.576          36.000    37806870.753   152232603.772        -843.685          40.000  
R10  20892824.625   111370512.517       -2612.325          48.000                                                                  
R 1  20633501.306   110297880.634         -57.634          36.000    20633502.258    85787245.833         -44.879          37.000  
R 8  20926259.416   112059167.385       -2393.049          49.000    20926258.153    87157124.753       -1861.244          47.000  
G18  21930790.035   115247092.649        -894.567          43.000    21930790.638    89802920.292        -697.035          40.000  
G24  21257573.217   111709297.969        1198.993          46.000    21257573.381    87046208.160         934.167          48.000  
E33  25638714.291   134732353.379       -3696.819          45.000                                                                  
C32  24728447.330   128767519.921         858.597          34.000                                                                  
E 7  27404226.449   144010178.596       -3207.643          43.000                                                                  
E20  24471160.547   128596831.550       -1073.369          34.000                                                                  
G23  23413610.412   123039353.045        1706.704          41.000    23413610.596    95874820.740        1329.574          37.000  
J 1  39171297.468   205846551.392       -1206.512          46.000    39171295.341   160399906.212        -940.210          45.000  
> 2021 10 15  4 44  2.0010000  0 22                     
G28  23974962.069   125989273.723        -657.749          35.000                                                                  
G13  21490401.405   112932819.353       -3232.511          48.000                                                                  
G14  24323760.949   127822225.907       -1339.199          44.000    24323757.898    99601714.159       -1043.721          39.000  
G15  20542068.052   107949294.774       -1454.939          49.000    20542063.943    84116316.309       -1133.799          44.000  
J 7  37555360.931   197354752.824       -1388.297          40.000    37555358.803   153782922.489       -1081.700          46.000  
C 3  38089222.396   198340576.465       -1424.055          43.000    38089215.704   153369487.168       -1101.114          48.000  
C 8  36527494.398   190208247.992       -1811.100          46.000    36527487.107   147081053.018       -1400.494          52.000  
C13  36469281.671   189905118.108       -1470.729          50.000    36469279.085   146846672.768       -1137.220          47.000  
C16  37788410.060   196774166.417       -1219.222          45.000    37788409.765   152158265.622        -942.796          48.000  
C24  25673957.079   133691035.117       -3820.450          43.000                                                                  
C 6  37807090.349   196871437.831       -1092.062          36.000    37807080.312   152233448.003        -844.147          40.000  
R10  20893314.791   111373125.438       -2613.636          48.000                                                                  
R 1  20633512.435   110297938.731         -58.449          36.000    20633513.113    85787291.008         -45.518          38.000  
R 8  20926706.308   112061560.715       -2393.739          48.000    20926705.065    87158986.232       -1861.787          47.000  
G18  21930960.295   115247987.939        -895.946          43.000    21930961.082    89803617.934        -698.569          41.000  
G24  21257345.145   111708099.521        1197.839          46.000    21257345.395    87045274.306         933.337          48.000  
E33  25639417.682   134736050.742       -3697.936          45.000                                                                  
C32  24728282.396   128766661.146         858.123          34.000                                                                  
E 7  27404837.045   144013386.564       -3208.244          43.000                                                                  
E20  24471364.624   128597904.963       -1073.462          34.000                                                                  
G23  23413285.555   123037646.610        1705.787          41.000    23413285.852    95873491.012        1329.241          37.000  
J 1  39171527.050   205847758.130       -1206.921          46.000    39171524.930   160400846.520        -940.375          45.000  
> 2021 10 15  4 44  3.0010000  0 23                     
G28  23975087.353   125989931.825        -658.513          35.000                                                                  
G13  21491016.726   112936052.416       -3233.487          48.000                                                                  
G14  24324015.873   127823566.000       -1340.822          44.000    24324012.976    99602758.384       -1044.814          39.000  
G15  20542345.008   107950750.386       -1456.113          50.000    20542340.903    84117450.548       -1134.503          44.000  
J 7  37555625.263   197356141.454       -1388.977          40.000    37555622.922   153784004.542       -1082.236          46.000  
C 3  38089496.008   198342001.011       -1424.922          43.000    38089489.270   153370588.717       -1101.920          48.000  
C 8  36527842.298   190210059.777       -1812.217          45.000    36527835.019   147082454.010       -1401.369          52.000  
C13  36469564.119   189906589.391       -1471.731          50.000    36469561.641   146847810.463       -1138.127          47.000  
C16  37788644.338   196775386.019       -1219.950          45.000    37788643.916   152159208.697        -943.492          48.000  
C24  25674690.863   133694856.345       -3821.756          43.000                                                                  
C 6  37807300.173   196872530.423       -1092.934          36.000    37807290.149   152234292.881        -845.115          40.000  
R10  20893805.290   111375740.040       -2615.382          48.000                                                                  
R 1  20633523.800   110297997.794         -59.301          35.000    20633524.273    85787336.974         -46.471          38.000  
R 8  20927153.534   112063955.072       -2394.918          48.000    20927152.184    87160848.519       -1862.747          47.000  
G18  21931130.839   115248884.672        -897.576          43.000    21931131.922    89804316.665        -699.241          41.000  
G24  21257117.329   111706902.355        1196.582          46.000    21257117.475    87044341.449         932.318          48.000  
E33  25640121.598   134739749.165       -3699.129          45.000                                                                  
C32  24728117.564   128765803.203         857.258          33.000                                                                  
E 7  27405447.700   144016595.344       -3209.105          43.000                                                                  
E20  24471568.828   128598979.313       -1074.856          34.000                                                                  
G23  23412960.985   123035941.006        1705.423          41.000    23412961.444    95872162.019        1328.426          37.000  
J 1  39171756.859   205848965.561       -1207.776          46.000    39171754.751   160401787.384        -941.223          45.000  
J 3                                                                  37749223.812                3      -1434.844          25.000  
> 2021 10 15  4 44  4.0010000  0 23                     
G28  23975212.915   125990591.316        -660.294          35.000                                                                  
G13  21491632.217   112939286.518       -3234.682          48.000                                                                  
G14  24324271.082   127824907.511       -1342.211          44.000    24324268.293    99603803.718       -1045.710          39.000  
G15  20542622.191   107952207.156       -1457.351          50.000    20542618.200    84118585.697       -1135.603          44.000  
J 7  37555889.582   197357530.936       -1389.877          40.000    37555887.329   153785087.266       -1083.074          46.000  
C 3  38089769.739   198343426.389       -1425.657          43.000    38089763.044   153371690.921       -1102.594          48.000  
C 8  36528190.500   190211872.607       -1813.434          46.000    36528183.187   147083855.801       -1402.233          52.000  
C13  36469846.830   189908061.696       -1472.793          50.000    36469844.359   146848948.939       -1138.949          47.000  
C16  37788878.657   196776606.527       -1221.031          45.000    37788878.326   152160152.468        -944.149          48.000  
C24  25675424.939   133698678.751       -3822.990          43.000                                                                  
C 6  37807510.268   196873623.925       -1093.789          35.000    37807500.081   152235138.453        -845.938          40.000  
R10  20894296.134   111378356.376       -2617.269          48.000                                                                  
R 1  20633535.227   110298057.923         -60.342          34.000    20633535.596    85787383.721         -47.028          38.000  
R 8  20927600.829   112066350.570       -2396.027          48.000    20927599.536    87162711.677       -1863.501          47.000  
G18  21931301.624   115249782.923        -899.078          43.000    21931302.950    89805016.600        -700.402          41.000  
G24  21256889.817   111705706.514        1195.117          46.000    21256889.810    87043409.627         931.213          48.000  
E33  25640825.720   134743448.736       -3700.207          45.000                                                                  
C32  24727952.932   128764946.146         856.279          33.000                                                                  
E 7  27406058.366   144019804.972       -3209.875          43.000                                                                  
E20  24471773.214   128600054.583       -1075.400          33.000                                                                  
G23  23412636.638   123034236.374        1704.247          41.000    23412637.043    95870833.708        1327.815          37.000  
J 1  39171986.710   205850173.758       -1208.575          46.000    39171984.721   160402728.834        -941.742          45.000  
J 3                                                                  37749575.573                3      -1438.590          25.000  
> 2021 10 15  4 44  5.0010000  0 23                     
G28  23975338.708   125991252.092        -661.471          36.000                                                                  
G13  21492247.757   112942521.626       -3235.644          48.000                                                                  
G14  24324526.656   127826250.417       -1343.591          44.000    24324523.842    99604850.143       -1047.062          39.000  
G15  20542899.630   107953665.063       -1458.522          50.000    20542895.787    84119721.734       -1136.563          44.000  
J 7  37556154.064   197358921.263       -1390.884          40.000    37556151.909   153786170.622       -1083.602          46.000  
C 3  38090043.595   198344852.601       -1426.686          43.000    38090036.904   153372793.745       -1103.144          49.000  
C 8  36528538.794   190213686.431       -1814.421          46.000    36528531.505   147085258.362       -1402.916          52.000  
C13  36470129.799   189909534.988       -1473.660          50.000    36470127.330   146850088.188       -1139.619          47.000  
C16  37789113.192   196777827.883       -1221.740          45.000    37789112.825   152161096.902        -944.796          48.000  
C24  25676159.308   133702502.320       -3824.273          43.000                                                                  
C 6  37807720.341   196874718.290       -1094.497          35.000    37807710.216   152235984.692        -846.698          40.000  
R10  20894787.264   111380974.433       -2618.816          48.000                                                                  
R 1  20633546.983   110298119.094         -61.938          34.000    20633547.072    85787431.317         -48.138          38.000  
R 8  20928048.372   112068747.191       -2397.304          48.000    20928047.024    87164575.705       -1864.368          47.000  
G18  21931472.657   115250682.673        -900.581          43.000    21931474.328    89805717.686        -701.375          40.000  
G24  21256662.535   111704511.981        1193.860          46.000    21256662.591    87042478.819         930.371          48.000  
E33  25641529.917   134747149.414       -3701.397          45.000                                                                  
C32  24727788.603   128764089.893         855.497          33.000                                                                  
E 7  27406669.211   144023015.451       -3211.072          43.000                                                                  
E20  24471977.964   128601130.803       -1076.817          33.000                                                                  
G23  23412312.430   123032532.662        1703.253          41.000    23412312.848    95869506.149        1327.137          37.000  
J 1  39172216.868   205851382.694       -1209.247          46.000    39172214.733   160403670.860        -942.126          45.000  
J 3                                                                  37749926.496                3      -1437.307          25.000  
> 2021 10 15  4 44  6.0010000  0 23                     
G28  23975464.838   125991914.078        -662.624          35.000                                                                  
G13  21492863.476   112945757.637       -3236.691          48.000                                                                  
G14  24324782.550   127827594.618       -1345.173          44.000    24324779.666    99605897.556       -1048.040          39.000  
G15  20543177.290   107955124.010       -1459.681          50.000    20543173.396    84120858.570       -1137.389          44.000  
J 7  37556418.731   197360312.318       -1391.811          40.000    37556416.613   153787254.554       -1084.307          46.000  
C 3  38090317.631   198346279.531       -1427.665          43.000    38090310.927   153373897.148       -1103.892          49.000  
C 8  36528887.330   190215501.167       -1815.442          46.000    36528879.979   147086661.636       -1403.810          52.000  
C13  36470412.875   189911009.189       -1474.777          50.000    36470410.470   146851228.134       -1140.418          47.000  
C16  37789347.845   196779050.019       -1222.788          45.000    37789347.463   152162041.937        -945.561          47.000  
C24  25676893.707   133706326.937       -3825.465          43.000                                                                  
C 6  37807930.734   196875813.484       -1095.892          35.000    37807920.458   152236831.525        -847.292          40.000  
R10  20895278.593   111383594.089       -2620.670          48.000                                                                  
R 1  20633558.944   110298181.156         -62.739          34.000    20633558.745    85787479.603         -48.822          38.000  
R 8  20928496.048   112071144.787       -2398.331          48.000    20928494.800    87166440.517       -1865.371          47.000  
G18  21931643.989   115251583.813        -902.009          43.000    21931645.975    89806419.881        -702.795          40.000  
G24  21256435.459   111703318.670        1192.444          46.000    21256435.590    87041548.973         929.163          48.000  
E33  25642234.405   134750851.120       -3702.516          45.000                                                                  
C32  24727624.378   128763234.412         854.620          34.000                                                                  
E 7  27407279.833   144026226.653       -3211.836          42.000                                                                  
E20  24472182.864   128602207.821       -1077.611          33.000                                                                  
G23  23411988.332   123030829.781        1702.334          41.000    23411988.911    95868179.224        1326.211          37.000  
J 1  39172447.077   205852592.283       -1210.114          46.000    39172444.955   160404613.392        -943.018          45.000  
J 3                                                                  37750276.542                3      -1438.399          25.000  
> 2021 10 15  4 44  7.0010000  0 23                     
G28  23975591.147   125992577.427        -664.329          35.000                                                                  
G13  21493479.557   112948994.682       -3237.654          48.000                                                                  
G14  24325038.619   127828940.214       -1345.974          44.000    24325035.828    99606946.110       -1049.115          39.000  
G15  20543455.104   107956584.121       -1460.609          50.000    20543451.316    84121996.327       -1138.260          44.000  
J 7  37556683.650   197361704.205       -1392.381          40.000    37556681.536   153788339.148       -1084.879          46.000  
C 3  38090591.711   198347707.297       -1428.121          43.000    38090585.092   153375001.184       -1104.297          49.000  
C 8  36529236.054   190217316.959       -1816.365          46.000    36529228.632   147088065.720       -1404.499          52.000  
C13  36470696.187   189912484.425       -1475.660          50.000    36470693.692   146852368.882       -1141.186          47.000  
C16  37789582.768   196780273.055       -1223.625          45.000    37789582.348   152162987.660        -946.104          47.000  
C24  25677628.466   133710152.727       -3826.431          43.000                                                                  
C 6  37808141.275   196876909.526       -1096.420          35.000    37808130.935   152237679.082        -848.054          40.000  
R10  20895770.241   111386215.493       -2622.310          48.000                                                                  
R 1  20633570.983   110298244.276         -63.654          33.000    20633570.564    85787528.696         -49.401          38.000  
R 8  20928943.988   112073543.500       -2399.281          48.000    20928942.711    87168306.174       -1865.930          47.000  
G18  21931815.606   115252486.477        -903.462          44.000    21931817.931    89807123.255        -703.966          40.000  
G24  21256208.607   111702126.701        1191.351          46.000    21256208.704    87040620.163         928.265          48.000  
E33  25642939.133   134754553.967       -3703.635          45.000    25642939.343   103253490.232       -2837.520          48.000  
C32  24727460.252   128762379.792         854.126          33.000                                                                  
E 7  27407891.308   144029438.712       -3212.655          43.000    27407894.072   110360231.953       -2461.490          44.000  
E20  24472387.757   128603285.779       -1077.971          33.000                                                                  
G23  23411664.396   123029127.836        1701.411          40.000    23411664.995    95866853.037        1325.790          37.000  
J 1  39172677.470   205853802.627       -1210.785          46.000    39172675.312   160405556.519        -943.439          45.000  
J 3                                                                  37750627.831                3      -1438.222          26.000  
> 2021 10 15  4 44  8.0010000  0 23                     
G28  23975717.678   125993242.139        -665.333          34.000                                                                  
G13  21494095.838   112952232.853       -3238.695          48.000                                                                  
G14  24325294.963   127830287.355       -1347.929          44.000    24325292.147    99607995.803       -1050.398          39.000  
G15  20543733.224   107958045.480       -1461.885          50.000    20543729.404    84123135.038       -1139.206          44.000  
J 7  37556948.762   197363097.039       -1393.211          40.000    37556946.633   153789424.480       -1085.610          46.000  
C 3  38090866.066   198349136.005       -1429.132          43.000    38090859.456   153376105.949       -1105.080          49.000  
C 8  36529584.920   190219133.876       -1817.520          46.000    36529577.551   147089470.673       -1405.331          52.000  
C13  36470979.675   189913960.775       -1476.869          50.000    36470977.217   146853510.491       -1142.049          47.000  
C16  37789817.836   196781497.065       -1224.326          45.000    37789817.408   152163934.138        -946.749          47.000  
C24  25678363.508   133713979.796       -3827.640          43.000                                                                  
C 6  37808352.000   196878006.587       -1097.265          35.000    37808341.656   152238527.394        -848.847          40.000  
R10  20896262.181   111388838.708       -2624.049          48.000                                                                  
R 1  20633583.420   110298308.505         -64.996          33.000    20633582.556    85787578.655         -50.227          38.000  
R 8  20929392.140   112075943.406       -2400.366          48.000    20929390.999    87170172.773       -1866.993          47.000  
G18  21931987.595   115253390.753        -905.063          44.000    21931990.197    89807827.876        -705.121          40.000  
G24  21255982.055   111700936.160        1189.941          47.000    21255982.190    87039692.460         927.258          48.000  
E33  25643643.981   134758258.043       -3704.709          45.000    25643644.334   103256328.424       -2838.628          48.000  
C32  24727296.237   128761526.176         853.077          33.000                                                                  
E 7  27408502.849   144032651.711       -3213.406          43.000    27408505.739   110362693.871       -2462.385          44.000  
E20  24472593.237   128604364.850       -1079.921          33.000                                                                  
G23  23411340.663   123027426.939        1700.568          40.000    23411341.385    95865527.644        1324.927          37.000  
J 1  39172907.983   205855013.820       -1211.530          46.000    39172905.782   160406500.306        -944.177          45.000  
J 3                                                                  37750979.182                       -1438.889          26.000  
> 2021 10 15  4 44  9.0010000  0 23                     
G28  23975844.385   125993908.275        -666.939          34.000                                                                  
G13  21494712.254   112955472.114       -3239.719          48.000                                                                  
G14  24325551.560   127831635.939       -1349.233          44.000    24325548.807    99609046.652       -1051.396          39.000  
G15  20544011.613   107959508.058       -1463.181          50.000    20544007.783    84124274.714       -1140.183          44.000  
J 7  37557213.940   197364490.788       -1394.332          40.000    37557211.900   153790510.519       -1086.459          46.000  
C 3  38091140.732   198350565.626       -1430.136          43.000    38091134.030   153377211.416       -1105.758          49.000  
C 8  36529934.056   190220951.891       -1818.610          46.000    36529926.666   147090876.478       -1406.246          52.000  
C13  36471263.371   189915438.192       -1477.953          50.000    36471260.935   146854652.921       -1142.865          47.000  
C16  37790053.192   196782722.018       -1225.419          45.000    37790052.637   152164881.366        -947.563          47.000  
C24  25679098.745   133717808.081       -3828.901          43.000                                                                  
C 6  37808562.829   196879104.646       -1098.844          34.000    37808552.464   152239376.433        -849.349          40.000  
R10  20896754.631   111391463.712       -2625.980          48.000                                                                  
R 1  20633596.047   110298373.815         -65.965          33.000    20633594.734    85787629.468         -51.137          38.000  
R 8  20929840.516   112078344.476       -2401.644          48.000    20929839.339    87172040.266       -1867.823          47.000  
G18  21932159.875   115254296.595        -906.547          44.000    21932162.660    89808533.718        -706.053          40.000  
G24  21255755.780   111699747.000        1188.556          47.000    21255755.973    87038765.840         926.270          48.000  
E33  25644349.040   134761963.305       -3705.763          45.000    25644349.533   103259167.532       -2839.517          48.000  
C32  24727132.421   128760673.462         851.974          33.000                                                                  
E 7  27409114.428   144035865.647       -3214.564          43.000    27409116.796   110365156.469       -2462.846          44.000  
E20  24472798.574   128605444.801       -1080.121          33.000                                                                  
G23  23411017.101   123025727.052        1699.272          40.000    23411017.870    95864203.073        1324.257          36.000  
J 1  39173138.606   205856225.839       -1212.384          46.000    39173136.385   160407444.732        -944.727          45.000  
J 3                                                                  37751331.721                       -1438.861          26.000  
> 2021 10 15  4 44 10.0010000  0 23                     
G28  23975971.312   125994575.686        -668.266          34.000                                                                  
G13  21495328.887   112958712.353       -3240.720          48.000                                                                  
G14  24325808.316   127832985.897       -1350.895          44.000    24325805.718    99610098.564       -1052.638          39.000  
G15  20544290.078   107960971.747       -1464.312          49.000    20544286.300    84125415.250       -1141.188          44.000  
J 7  37557479.349   197365885.323       -1394.946          40.000    37557477.261   153791597.176       -1087.132          46.000  
C 3  38091415.482   198351996.013       -1430.911          43.000    38091408.649   153378317.491       -1106.444          49.000  
C 8  36530283.494   190222770.884       -1819.552          46.000    36530276.020   147092283.040       -1406.999          52.000  
C13  36471547.228   189916916.586       -1479.018          50.000    36471544.840   146855796.101       -1143.606          47.000  
C16  37790288.499   196783947.816       -1226.241          45.000    37790288.027   152165829.234        -948.231          47.000  
C24  25679834.127   133721637.507       -3830.016          43.000                                                                  
C 6  37808773.815   196880203.468       -1098.989          34.000    37808763.485   152240226.137        -850.108          40.000  
R10  20897247.315   111394090.390       -2627.566          48.000                                                                  
R 1  20633608.725   110298440.097         -66.418          33.000    20633607.284    85787681.037         -51.750          39.000  
R 8  20930289.107   112080746.591       -2402.707          48.000    20930287.995    87173908.586       -1868.771          47.000  
G18  21932332.331   115255203.910        -908.090          44.000    21932335.467    89809240.727        -707.469          40.000  
G24  21255529.756   111698559.137        1187.097          46.000    21255529.789    87037840.229         925.134          48.000  
E33  25645054.340   134765669.681       -3706.995          45.000    25645054.983   103262007.476       -2840.417          48.000  
C32  24726968.899   128759821.563         851.647          33.000                                                                  
E 7  27409726.133   144039080.366       -3215.145          43.000    27409728.763   110367619.705       -2463.505          44.000  
E20  24473004.227   128606525.730       -1081.330          33.000                                                                  
G23  23410693.848   123024028.062        1698.290          40.000    23410694.534    95862879.174        1323.554          36.000  
J 1  39173369.346   205857438.565       -1213.177          46.000    39173367.238   160408389.716        -945.276          45.000  
J 3                                                                  37751683.079                       -1440.604          26.000  
> 2021 10 15  4 44 11.0010000  0 23                     
G28  23976098.612   125995244.200        -668.822          34.000                                                                  
G13  21495945.608   112961953.424       -3241.621          48.000                                                                  
G14  24326065.442   127834337.054       -1351.826          44.000    24326062.842    99611151.425       -1053.387          39.000  
G15  20544568.733   107962436.389       -1465.113          50.000    20544565.080    84126556.522       -1141.633          44.000  
J 7  37557744.897   197367280.510       -1395.670          40.000    37557742.846   153792684.325       -1087.410          46.000  
C 3  38091690.296   198353427.057       -1431.394          43.000    38091683.557   153379424.066       -1106.814          49.000  
C 8  36530633.018   190224590.704       -1820.036          46.000    36530625.458   147093690.248       -1407.664          52.000  
C13  36471831.329   189918395.791       -1479.599          50.000    36471828.912   146856939.926       -1144.193          47.000  
C16  37790523.961   196785174.306       -1226.788          45.000    37790523.578   152166777.633        -948.665          47.000  
C24  25680569.828   133725467.908       -3830.920          42.000                                                                  
C 6  37808984.944   196881303.029       -1099.732          34.000    37808974.501   152241076.388        -850.803          40.000  
R10  20897740.320   111396718.585       -2628.968          48.000                                                                  
R 1  20633621.457   110298507.179         -66.968          32.000    20633619.788    85787733.267         -52.633          39.000  
R 8  20930737.786   112083149.590       -2403.499          48.000    20930736.729    87175777.582       -1869.411          47.000  
G18  21932505.118   115256112.529        -909.255          44.000    21932508.502    89809948.770        -708.992          40.000  
G24  21255303.853   111697372.384        1186.243          46.000    21255303.846    87036915.497         924.335          48.000  
E33  25645759.725   134769376.979       -3707.872          45.000    25645760.236   103264848.131       -2841.082          48.000  
C32  24726805.466   128758970.357         850.103          33.000                                                                  
E 7  27410337.997   144042295.733       -3215.654          43.000    27410340.781   110370083.440       -2464.179          44.000  
E20  24473210.293   128607607.334       -1081.810          33.000                                                                  
G23  23410370.630   123022329.791        1697.849          40.000    23410371.405    95861555.842        1323.255          36.000  
J 1  39173600.173   205858651.844       -1213.556          46.000    39173598.086   160409335.128        -945.642          45.000  
J 3                                                                  37752034.995                       -1441.244          26.000  
> 2021 10 15  4 44 12.0010000  0 24                     
G28  23976226.126   125995913.927        -670.599          34.000                                                                  
G13  21496562.603   112965195.380       -3242.390          48.000                                                                  
G14  24326322.899   127835689.497       -1353.118          44.000    24326320.298    99612205.264       -1054.277          39.000  
G15  20544847.773   107963902.042       -1466.201          50.000    20544843.973    84127698.590       -1142.444          44.000  
J 7  37558010.512   197368676.391       -1396.053          40.000    37558008.607   153793772.034       -1088.002          46.000  
C 3  38091965.355   198354858.804       -1432.054          43.000    38091958.503   153380531.182       -1107.393          49.000  
C 8  36530982.699   190226411.419       -1821.076          46.000    36530975.117   147095098.128       -1408.197          52.000  
C13  36472115.681   189919875.878       -1480.676          50.000    36472113.142   146858084.418       -1144.915          47.000  
C16  37790759.710   196786401.547       -1227.607          45.000    37790759.196   152167726.613        -949.186          47.000  
C24  25681305.601   133729299.339       -3831.866          43.000                                                                  
C 6  37809196.397   196882403.327       -1100.577          34.000    37809185.744   152241927.210        -851.189          40.000  
R10  20898233.604   111399348.377       -2630.635          47.000                                                                  
R 1  20633634.449   110298575.214         -68.224          32.000    20633632.427    85787786.175         -53.329          39.000  
R 8  20931186.745   112085553.540       -2404.444          48.000    20931185.719    87177647.319       -1869.988          47.000  
R11  20757953.797                3       1540.732          25.000                                                                  
G18  21932678.182   115257022.540        -910.724          44.000    21932681.853    89810657.843        -709.553          39.000  
G24  21255078.323   111696186.832        1184.888          47.000    21255078.332    87035991.688         923.230          48.000  
E33  25646465.336   134773085.281       -3709.015          45.000    25646465.998   103267689.554       -2841.911          49.000  
C32  24726642.121   128758119.874         849.668          33.000                                                                  
E 7  27410950.146   144045511.837       -3216.448          43.000    27410952.576   110372547.710       -2464.574          44.000  
E20  24473416.295   128608689.804       -1082.926          33.000                                                                  
G23  23410047.556   123020632.336        1697.083          40.000    23410048.247    95860233.154        1322.470          36.000  
J 1  39173831.104   205859865.745       -1214.313          46.000    39173829.074   160410281.025        -946.136          45.000  
J 3                                                                  37752387.229                       -1441.625          26.000  
> 2021 10 15  4 44 13.0010000  0 24                     
G28  23976353.805   125996584.880        -671.851          34.000                                                                  
G13  21497179.697   112968438.283       -3243.652          48.000                                                                  
G14  24326580.577   127837043.261       -1354.499          45.000    24326577.896    99613260.152       -1055.760          39.000  
G15  20545126.917   107965368.758       -1467.297          50.000    20545123.092    84128841.490       -1143.326          44.000  
J 7  37558276.364   197370073.047       -1396.993          40.000    37558274.350   153794860.330       -1088.601          46.000  
C 3  38092240.524   198356291.310       -1433.193          43.000    38092233.565   153381638.883       -1108.231          49.000  
C 8  36531332.672   190228233.084       -1822.268          46.000    36531324.886   147096506.753       -1409.060          52.000  
C13  36472400.145   189921356.915       -1481.820          50.000    36472397.533   146859229.641       -1145.643          47.000  
C16  37790995.505   196787629.579       -1228.457          45.000    37790995.058   152168676.212        -950.056          47.000  
C24  25682041.617   133733131.872       -3833.338          43.000                                                                  
C 6  37809407.984   196883504.462       -1102.116          34.000    37809397.145   152242778.655        -851.887          40.000  
R10  20898727.231   111401979.825       -2632.445          47.000                                                                  
R 1  20633647.475   110298644.146         -69.391          32.000    20633645.280    85787839.796         -53.872          39.000  
R 8  20931635.942   112087958.530       -2405.643          48.000    20931634.813    87179517.871       -1871.066          47.000  
R11  20757665.441                3       1537.983          25.000                                                                  
G18  21932851.578   115257933.955        -912.181          44.000    21932855.440    89811368.043        -710.730          40.000  
G24  21254852.978   111695002.526        1183.582          47.000    21254852.934    87035068.854         922.266          48.000  
E33  25647171.243   134776794.618       -3709.960          45.000    25647171.882   103270531.769       -2842.573          49.000  
C32  24726478.858   128757270.138         849.429          33.000                                                                  
E 7  27411562.468   144048728.707       -3217.451          43.000    27411564.884   110375012.579       -2465.245          44.000  
E20  24473622.405   128609773.096       -1083.873          33.000                                                                  
G23  23409724.785   123018935.733        1695.988          40.000    23409725.242    95858911.127        1321.677          36.000  
